%time,field.header.seq,field.header.stamp,field.header.frame_id,field.pose.position.x,field.pose.position.y,field.pose.position.z,field.pose.orientation.x,field.pose.orientation.y,field.pose.orientation.z,field.pose.orientation.w
1570518485636529524,77922,1570518485636269092,map,-22850.2815558,-93071.572375,31.143,0.0,0.0,-0.781888346696,0.623418489701
1570518485680550816,77923,1570518485680294990,map,-22850.5169059,-93072.1348246,31.153,0.0,0.0,-0.832468322367,0.554072641678
1570518485724518716,77924,1570518485724250078,map,-22850.7488599,-93072.6992057,31.161,0.0,0.0,-0.83070319261,0.556715551954
1570518485769396001,77925,1570518485768667936,map,-22850.9722803,-93073.2634603,31.163,0.0,0.0,-0.827087582809,0.562073064969
1570518485856676503,77926,1570518485856384038,map,-22850.8974737,-93073.6860097,32.236,0.0,0.0,-0.642524040873,0.766265526368
1570518485900808303,77927,1570518485899899005,map,-22851.1216153,-93074.2652754,32.261,0.0,0.0,-0.824884134171,0.565301835476
1570518485945537107,77928,1570518485944392919,map,-22851.33627,-93074.845619,32.29,0.0,0.0,-0.820641792636,0.57144295269
1570518485989197178,77929,1570518485988847017,map,-22851.5519289,-93075.4328195,32.318,0.0,0.0,-0.819984987527,0.572385027958
1570518486038638585,77930,1570518486038135051,map,-22851.8512737,-93076.0298299,32.048,0.0,0.0,-0.850946244051,0.525252786509
1570518486119349823,77931,1570518486119147062,map,-22852.0619068,-93076.616969,32.057,0.0,0.0,-0.817824342529,0.575467935481
1570518486119884253,77932,1570518486119496107,map,-22852.2636203,-93077.2073847,32.064,0.0,0.0,-0.813418421151,0.581679011253
1570518486198213572,77933,1570518486197596073,map,-22852.4604928,-93077.8048383,32.07,0.0,0.0,-0.810236301623,0.58610334885
1570518486241710068,77934,1570518486241386890,map,-22852.8397723,-93078.4534346,32.025,0.0,0.0,-0.867408760466,0.497596264322
1570518486286280114,77935,1570518486286045074,map,-22853.0267839,-93079.0662035,32.046,0.0,0.0,-0.803710035564,0.595021158223
1570518486330897324,77936,1570518486329885005,map,-22853.208744,-93079.6808154,32.075,0.0,0.0,-0.801210742241,0.598382274568
1570518486373898211,77937,1570518486373613119,map,-22853.3931709,-93080.2921856,32.092,0.0,0.0,-0.802747456669,0.596319143422
1570518486418136233,77938,1570518486417804002,map,-22853.2724852,-93080.8072398,33.315,0.0,0.0,-0.621233720067,0.783625334616
1570518486507832142,77939,1570518486504894018,map,-22853.4450347,-93081.4231142,33.342,0.0,0.0,-0.796800399128,0.604242603553
1570518486549443529,77940,1570518486549156904,map,-22853.6195942,-93082.0412208,33.348,0.0,0.0,-0.79742708199,0.603415320413
1570518486593128557,77941,1570518486592871904,map,-22853.7895345,-93082.6580077,33.357,0.0,0.0,-0.79549581527,0.605959081035
1570518486637566671,77942,1570518486636944055,map,-22854.1763556,-93083.2684978,32.034,0.0,0.0,-0.876135603201,0.482064730927
1570518486681088883,77943,1570518486680764913,map,-22854.3319969,-93083.8928088,32.047,0.0,0.0,-0.78800291201,0.61567151198
1570518486725457092,77944,1570518486725100994,map,-22854.4884577,-93084.5169514,32.046,0.0,0.0,-0.788402658329,0.615159530805
1570518486770226272,77945,1570518486769417047,map,-22854.6400981,-93085.1441938,32.048,0.0,0.0,-0.785807718974,0.61847087951
1570518486812691769,77946,1570518486812438964,map,-22855.00438,-93085.6736667,30.883,0.0,0.0,-0.885102624361,0.465395900658
1570518486903904207,77947,1570518486899920940,map,-22855.144308,-93086.3106268,30.91,0.0,0.0,-0.779283184321,0.626671938605
1570518486945121104,77948,1570518486944885015,map,-22855.2827788,-93086.94772,30.9,0.0,0.0,-0.778584926496,0.627539251548
1570518486989196984,77949,1570518486988517999,map,-22855.4171787,-93087.5901852,30.903,0.0,0.0,-0.776131973444,0.630570503431
1570518487032280737,77950,1570518487032044887,map,-22855.628535,-93088.2351188,30.461,0.0,0.0,-0.809759582392,0.586761807486
1570518487077890797,77951,1570518487076734066,map,-22855.7607943,-93088.8776448,30.462,0.0,0.0,-0.775117929319,0.631816583866
1570518487120355049,77952,1570518487120040893,map,-22855.8905753,-93089.5248548,30.474,0.0,0.0,-0.773501746021,0.633794169192
1570518487197020098,77953,1570518487196261882,map,-22856.0169826,-93090.1709086,30.474,0.0,0.0,-0.772016745356,0.635602190753
1570518487240300897,77954,1570518487240051984,map,-22856.1322067,-93090.8016817,30.444,0.0,0.0,-0.768016186033,0.640430431813
1570518487327852527,77955,1570518487327533960,map,-22856.2512787,-93091.4530417,30.452,0.0,0.0,-0.768057655738,0.64038069729
1570518487374389735,77956,1570518487371925115,map,-22856.3691926,-93092.1027961,30.449,0.0,0.0,-0.767645176624,0.640875091422
1570518487417848724,77957,1570518487415750026,map,-22856.4784728,-93092.754791,30.462,0.0,0.0,-0.763316169968,0.646025096002
1570518487465404877,77958,1570518487459631919,map,-22856.5906073,-93093.3826137,29.938,0.0,0.0,-0.766754863763,0.641940011914
1570518487504101078,77959,1570518487503747940,map,-22856.6972703,-93094.0383684,29.939,0.0,0.0,-0.761756798443,0.647863087408
1570518487551086851,77960,1570518487547622919,map,-22856.8004661,-93094.6920056,29.952,0.0,0.0,-0.760245909987,0.649635402629
1570518487591651146,77961,1570518487591375112,map,-22856.8949521,-93095.3478465,29.964,0.0,0.0,-0.755842657798,0.654753294496
1570518487679181682,77962,1570518487678889036,map,-22856.8545258,-93095.7843238,29.229,0.0,0.0,-0.673711832041,0.738994159225
1570518487724794279,77963,1570518487723195075,map,-22856.9371502,-93096.4509182,29.28,0.0,0.0,-0.749335958371,0.662190019173
1570518487769838993,77964,1570518487767237901,map,-22857.0252163,-93097.1198654,29.3,0.0,0.0,-0.751838597258,0.659347195091
1570518487811229578,77965,1570518487811017036,map,-22857.1022741,-93097.7887479,29.347,0.0,0.0,-0.746474016869,0.665414564118
1570518487865231090,77966,1570518487855199098,map,-22857.1610899,-93098.4248771,28.613,0.0,0.0,-0.738940503349,0.673770682436
1570518487943137509,77967,1570518487942858934,map,-22857.3061421,-93099.7750711,28.655,0.0,0.0,-0.74391396879,0.668275397601
1570518488030641027,77968,1570518488030361890,map,-22857.3748642,-93100.4499651,28.683,0.0,0.0,-0.742058856474,0.67033473245
1570518488077399259,77969,1570518488074812889,map,-22857.2806238,-93100.9813523,28.153,0.0,0.0,-0.642408376557,0.766362497601
1570518488120499116,77970,1570518488118638038,map,-22857.348155,-93101.6536238,28.127,0.0,0.0,-0.741602735522,0.670839312106
1570518488152721435,77971,1570518488152304887,map,-22857.4013816,-93102.3312377,28.153,0.0,0.0,-0.734271338372,0.678856097892
1570518488198169192,77972,1570518488196616888,map,-22857.4589607,-93103.0128343,28.148,0.0,0.0,-0.736266603845,0.676691575285
1570518488241943637,77973,1570518488240585088,map,-22857.3015626,-93103.8596353,29.95,0.0,0.0,-0.639240256745,0.769007083294
1570518488328316493,77974,1570518488328104972,map,-22857.3569299,-93104.5431972,29.947,0.0,0.0,-0.735096521923,0.677962464637
1570518488329093393,77975,1570518488328496932,map,-22857.4017901,-93105.2267302,29.961,0.0,0.0,-0.729893490501,0.6835608916
1570518488416346392,77976,1570518488416122913,map,-22857.4445888,-93105.9116366,29.966,0.0,0.0,-0.728823285837,0.684701846077
1570518488462793052,77977,1570518488460071086,map,-22857.4498477,-93106.5339417,29.688,0.0,0.0,-0.710088172542,0.70411276598
1570518488504291152,77978,1570518488504112958,map,-22857.4839644,-93107.2200163,29.684,0.0,0.0,-0.724453579168,0.689323589927
1570518488548304658,77979,1570518488548031091,map,-22857.5181648,-93107.9091783,29.665,0.0,0.0,-0.724418746148,0.689360196291
1570518488592635875,77980,1570518488592355966,map,-22857.5480137,-93108.6008103,29.651,0.0,0.0,-0.722190109203,0.691694619156
1570518488636453703,77981,1570518488636105060,map,-22857.5316666,-93109.2352247,29.697,0.0,0.0,-0.697940299264,0.716155945771
1570518488723721494,77982,1570518488723481893,map,-22857.5536124,-93109.9298348,29.689,0.0,0.0,-0.718184749253,0.695852474265
1570518488769121868,77983,1570518488768266916,map,-22857.5720878,-93110.6270792,29.679,0.0,0.0,-0.716410661468,0.697678840252
1570518488811744259,77984,1570518488811551094,map,-22857.5868568,-93111.3236672,29.671,0.0,0.0,-0.714561793173,0.699572329168
1570518488855682030,77985,1570518488855458974,map,-22857.5386828,-93111.9692737,29.465,0.0,0.0,-0.68028988669,0.732943156095
1570518488899617320,77986,1570518488899426937,map,-22857.5456201,-93112.6730737,29.483,0.0,0.0,-0.710582994601,0.703613393693
1570518488943983374,77987,1570518488943182945,map,-22857.5544026,-93113.3740403,29.479,0.0,0.0,-0.711522367052,0.702663448021
1570518488987551665,77988,1570518488987199068,map,-22857.5652646,-93114.0807701,29.47,0.0,0.0,-0.712519325421,0.701652485852
1570518489031354325,77989,1570518489031138896,map,-22857.5739915,-93114.8138891,29.542,0.0,0.0,-0.711302679641,0.702885835635
1570518489119039489,77990,1570518489118828058,map,-22857.5781509,-93115.5179734,29.522,0.0,0.0,-0.709192289342,0.705015103908
1570518489153972741,77991,1570518489153098106,map,-22857.572126,-93116.2296084,29.532,0.0,0.0,-0.704107229284,0.710093662604
1570518489198122156,77992,1570518489197818994,map,-22857.5629931,-93116.9431187,29.543,0.0,0.0,-0.702567140701,0.71161746241
1570518489242600015,77993,1570518489241750001,map,-22857.5571765,-93117.6349885,29.353,0.0,0.0,-0.70412823217,0.710072836166
1570518489285857736,77994,1570518489284955978,map,-22857.5464819,-93118.3553806,29.365,0.0,0.0,-0.70183906121,0.712335547449
1570518489329608497,77995,1570518489329411029,map,-22857.5334309,-93119.0746138,29.366,0.0,0.0,-0.700663017941,0.713492351249
1570518489373423836,77996,1570518489372780084,map,-22857.5215218,-93119.7950644,29.357,0.0,0.0,-0.701238956672,0.712926311512
1570518489459496068,77997,1570518489459228992,map,-22857.5925342,-93120.5532266,29.145,0.0,0.0,-0.739342846327,0.673329158425
1570518489505599760,77998,1570518489505048036,map,-22857.5736837,-93121.2726963,29.15,0.0,0.0,-0.697785226874,0.716307041119
1570518489548886621,77999,1570518489548669099,map,-22857.5538963,-93121.9939618,29.15,0.0,0.0,-0.69734356917,0.716737013511
1570518489593652073,78000,1570518489592951059,map,-22857.5298281,-93122.7155893,29.16,0.0,0.0,-0.695221497923,0.718795568174
1570518489637655232,78001,1570518489636785030,map,-22857.537775,-93123.5849365,29.766,0.0,0.0,-0.710331202774,0.70386758866
1570518489680317990,78002,1570518489680105924,map,-22857.5107946,-93124.3077547,29.761,0.0,0.0,-0.693793633363,0.720173863942
1570518489725858714,78003,1570518489725457906,map,-22857.4788574,-93125.0338949,29.777,0.0,0.0,-0.691397297075,0.722474759142
1570518489768919499,78004,1570518489768543004,map,-22857.4438635,-93125.7640919,29.788,0.0,0.0,-0.68997496452,0.723833232406
1570518489856611303,78005,1570518489856362104,map,-22857.3096,-93126.8679413,32.72,0.0,0.0,-0.663045197974,0.748579364826
1570518489902636430,78006,1570518489900510072,map,-22857.2704057,-93127.6003121,32.73,0.0,0.0,-0.687953251083,0.725755002962
1570518489945404369,78007,1570518489944492101,map,-22857.2305574,-93128.3322778,32.727,0.0,0.0,-0.687619215315,0.726071494227
1570518489988418843,78008,1570518489988152980,map,-22857.1836236,-93129.0663506,32.74,0.0,0.0,-0.68417622149,0.729316733627
1570518490031799060,78009,1570518490031487941,map,-22857.3624649,-93129.5094301,30.157,0.0,0.0,-0.828942908745,0.559333222723
1570518490119991050,78010,1570518490119155883,map,-22857.3207286,-93130.2392928,30.137,0.0,0.0,-0.686625587624,0.727011212032
1570518490119998462,78011,1570518490119517087,map,-22857.2800206,-93130.9735533,30.125,0.0,0.0,-0.687256937929,0.726414414277
1570518490197939196,78012,1570518490197232961,map,-22857.234493,-93131.7113203,30.133,0.0,0.0,-0.684984399179,0.728557734762
1570518490242271073,78013,1570518490242021083,map,-22857.1018533,-93132.2428413,29.453,0.0,0.0,-0.61558006848,0.788074348834
1570518490289046322,78014,1570518490288271903,map,-22857.0548084,-93132.9810189,29.455,0.0,0.0,-0.68425065342,0.729246901464
1570518490329788663,78015,1570518490329590082,map,-22857.0030006,-93133.7210759,29.455,0.0,0.0,-0.681969850434,0.731380286239
1570518490375522955,78016,1570518490374145984,map,-22856.9498786,-93134.463817,29.457,0.0,0.0,-0.681417879762,0.731894577887
1570518490418700086,78017,1570518490418342113,map,-22856.9942572,-93135.1550426,28.874,0.0,0.0,-0.729407608061,0.684079338456
1570518490505102796,78018,1570518490504839897,map,-22856.9391588,-93135.8967904,28.874,0.0,0.0,-0.680412460617,0.732829368569
1570518490549752927,78019,1570518490549534082,map,-22856.8862078,-93136.6411212,28.869,0.0,0.0,-0.681557132251,0.731764904513
1570518490592957031,78020,1570518490592711925,map,-22856.8333176,-93137.3854888,28.873,0.0,0.0,-0.681588154453,0.731736009576
1570518490637529752,78021,1570518490636647939,map,-22856.8674464,-93138.1184882,28.407,0.0,0.0,-0.723363683799,0.690467219324
1570518490682162290,78022,1570518490681191921,map,-22856.812847,-93138.8654486,28.411,0.0,0.0,-0.68084470656,0.732427802277
1570518490725174727,78023,1570518490724479913,map,-22856.7566117,-93139.6139846,28.413,0.0,0.0,-0.68010444237,0.733115234782
1570518490769275209,78024,1570518490768999099,map,-22856.7036264,-93140.3628083,28.409,0.0,0.0,-0.681695849267,0.731635680576
1570518490814027270,78025,1570518490813258886,map,-22856.6113286,-93140.9782967,27.716,0.0,0.0,-0.652571630301,0.757727040118
1570518490900141228,78026,1570518490899919986,map,-22856.5547321,-93141.7281094,27.716,0.0,0.0,-0.679975462108,0.733234867509
1570518490944768413,78027,1570518490944361925,map,-22856.4991104,-93142.4791584,27.709,0.0,0.0,-0.680493812855,0.732753826784
1570518490989386871,78028,1570518490989002943,map,-22856.4437213,-93143.2320742,27.71,0.0,0.0,-0.680673203252,0.732587189606
1570518491033537762,78029,1570518491033252000,map,-22856.3643291,-93144.0762193,28.35,0.0,0.0,-0.673187494469,0.739471836713
1570518491076270540,78030,1570518491076040983,map,-22856.3073106,-93144.8333177,28.348,0.0,0.0,-0.68003705993,0.733177739107
1570518491120133577,78031,1570518491119913101,map,-22856.246609,-93145.5930323,28.348,0.0,0.0,-0.678363250725,0.734726683921
1570518491196604853,78032,1570518491196382045,map,-22856.1857227,-93146.3517305,28.339,0.0,0.0,-0.678235265346,0.734844830452
1570518491240487264,78033,1570518491240134000,map,-22856.1570085,-93146.8988899,26.308,0.0,0.0,-0.688328926568,0.725398710262
1570518491327966793,78034,1570518491327606916,map,-22856.0936124,-93147.6618099,26.309,0.0,0.0,-0.677195941073,0.735802729945
1570518491372365797,78035,1570518491372018098,map,-22856.0324304,-93148.4297348,26.313,0.0,0.0,-0.678446724044,0.734649605345
1570518491416679259,78036,1570518491415636062,map,-22855.9693532,-93149.1987183,26.316,0.0,0.0,-0.67758682814,0.735442785219
1570518491459927330,78037,1570518491459640026,map,-22855.9127905,-93150.1546454,27.59,0.0,0.0,-0.685905510137,0.727690615004
1570518491506927279,78038,1570518491504023075,map,-22855.8492978,-93150.9274756,27.583,0.0,0.0,-0.67753959733,0.735486297663
1570518491547967963,78039,1570518491547619104,map,-22855.7842325,-93151.7028983,27.576,0.0,0.0,-0.676898975339,0.73607593167
1570518491591721506,78040,1570518491591469049,map,-22855.7181975,-93152.4791185,27.571,0.0,0.0,-0.676473820674,0.736466679452
1570518491679449117,78041,1570518491678993940,map,-22855.7994566,-93153.2182853,26.682,0.0,0.0,-0.744739897383,0.667354842078
1570518491731987361,78042,1570518491724564075,map,-22855.732902,-93153.9992029,26.679,0.0,0.0,-0.676417657067,0.736518264002
1570518491767452138,78043,1570518491767075061,map,-22855.662651,-93154.7834579,26.68,0.0,0.0,-0.674826087698,0.737976795952
1570518491811331669,78044,1570518491811022043,map,-22855.5901293,-93155.570455,26.684,0.0,0.0,-0.673883868538,0.738837283659
1570518491855153606,78045,1570518491854918003,map,-22855.5434002,-93156.494168,27.919,0.0,0.0,-0.689012417154,0.724749535362
1570518491942714204,78046,1570518491942423105,map,-22855.4715981,-93157.2835298,27.915,0.0,0.0,-0.674318843067,0.738440314368
1570518491943423867,78047,1570518491942917108,map,-22855.3976271,-93158.0738216,27.91,0.0,0.0,-0.673352696778,0.739321408957
1570518492030569429,78048,1570518492030308008,map,-22855.3220236,-93158.8670387,27.911,0.0,0.0,-0.672724881867,0.739892717438
1570518492075289068,78049,1570518492074918031,map,-22854.9123767,-93159.5204899,27.712,0.0,0.0,-0.484172230974,0.874972714291
1570518492118986181,78050,1570518492118741035,map,-22854.8338834,-93160.3177818,27.709,0.0,0.0,-0.671574170546,0.740937334364
1570518492152317767,78051,1570518492152112960,map,-22854.7584199,-93161.1183756,27.719,0.0,0.0,-0.673110905924,0.739541552805
1570518492202343778,78052,1570518492197139024,map,-22854.6849642,-93161.9203881,27.732,0.0,0.0,-0.67408921682,0.738649935874
1570518492241438310,78053,1570518492241110086,map,-22854.5195153,-93162.6398575,27.079,0.0,0.0,-0.622852157499,0.782339561762
1570518492328550992,78054,1570518492328274965,map,-22854.4434397,-93163.4446129,27.074,0.0,0.0,-0.673010787804,0.739632665246
1570518492328826565,78055,1570518492328608036,map,-22854.364346,-93164.2507441,27.09,0.0,0.0,-0.671697010035,0.740825975996
1570518492416519200,78056,1570518492416163921,map,-22854.2844678,-93165.0588555,27.116,0.0,0.0,-0.671429000685,0.741068888187
1570518492460706601,78057,1570518492460477113,map,-22854.1542357,-93165.7265597,27.778,0.0,0.0,-0.635831282938,0.771828076476
1570518492505563448,78058,1570518492504717111,map,-22854.0726033,-93166.5435132,27.773,0.0,0.0,-0.671033580358,0.741426957988
1570518492548408303,78059,1570518492548192024,map,-22853.9935632,-93167.3648791,27.783,0.0,0.0,-0.672388420661,0.740198494839
1570518492594010282,78060,1570518492592377901,map,-22853.9143415,-93168.1865043,27.803,0.0,0.0,-0.672318521028,0.740261984897
1570518492636121867,78061,1570518492635849952,map,-22853.7987207,-93168.8380123,24.983,0.0,0.0,-0.642364364515,0.766399388832
1570518492723698257,78062,1570518492723406076,map,-22853.7195723,-93169.6586019,24.998,0.0,0.0,-0.672306643553,0.740272772047
1570518492768800503,78063,1570518492768043994,map,-22853.6442654,-93170.4792188,25.014,0.0,0.0,-0.674023498087,0.738709905191
1570518492814478990,78064,1570518492811786890,map,-22853.5405762,-93171.3042707,24.997,0.0,0.0,-0.661553068776,0.74989835124
1570518492856770511,78065,1570518492855369091,map,-22853.7392346,-93172.175596,25.155,0.0,0.0,-0.781758024814,0.623581903714
1570518492902125623,78066,1570518492899640083,map,-22853.6556047,-93172.9953094,25.164,0.0,0.0,-0.670262481203,0.742124117848
1570518492943902100,78067,1570518492943377017,map,-22853.5723169,-93173.8181836,25.164,0.0,0.0,-0.670558992459,0.741856210888
1570518492988494683,78068,1570518492987376928,map,-22853.4909336,-93174.6436969,25.158,0.0,0.0,-0.671524599877,0.740982261435
1570518493031320704,78069,1570518493031071901,map,-22853.4120722,-93175.4998584,24.797,0.0,0.0,-0.673898296798,0.738824123573
1570518493119093181,78070,1570518493118765115,map,-22853.3236422,-93176.3307882,24.809,0.0,0.0,-0.668645871185,0.743580996898
1570518493153209413,78071,1570518493152795076,map,-22853.2375795,-93177.1612313,24.819,0.0,0.0,-0.669670625831,0.742658234249
1570518493197976544,78072,1570518493197083950,map,-22853.1528877,-93177.9933905,24.828,0.0,0.0,-0.670354186665,0.742041282154
1570518493241760030,78073,1570518493240959882,map,-22852.8200614,-93178.7220272,24.436,0.0,0.0,-0.540607809756,0.841274744677
1570518493285890634,78074,1570518493285053968,map,-22852.7352055,-93179.5613974,24.438,0.0,0.0,-0.670603457663,0.741816016658
1570518493330270784,78075,1570518493329582929,map,-22852.6498311,-93180.3998445,24.443,0.0,0.0,-0.67033547533,0.742058185396
1570518493373081873,78076,1570518493372802019,map,-22852.5654613,-93181.2393244,24.441,0.0,0.0,-0.670820901623,0.741619388869
1570518493460495258,78077,1570518493460287094,map,-22852.4356779,-93182.0730579,24.569,0.0,0.0,-0.6504563832,0.759543608725
1570518493511150441,78078,1570518493505079030,map,-22852.3652261,-93182.9164038,24.566,0.0,0.0,-0.677034551705,0.735951231943
1570518493549582141,78079,1570518493548564910,map,-22852.2861284,-93183.7572017,24.547,0.0,0.0,-0.673178623853,0.739479912092
1570518493593337527,78080,1570518493592538118,map,-22852.2169757,-93184.6039463,24.549,0.0,0.0,-0.677717564589,0.735322312083
1570518493637351099,78081,1570518493636604070,map,-22852.1587522,-93185.4795431,24.693,0.0,0.0,-0.683246174121,0.730188102853
1570518493681000911,78082,1570518493680201053,map,-22852.0960132,-93186.3287122,24.71,0.0,0.0,-0.680557853403,0.732694348396
1570518493724397836,78083,1570518493724091053,map,-22852.0384192,-93187.1769993,24.718,0.0,0.0,-0.68273768449,0.73066357113
1570518493811844109,78084,1570518493811566114,map,-22851.9785117,-93188.023092,24.703,0.0,0.0,-0.681678805788,0.731651560334
1570518493856434629,78085,1570518493855879068,map,-22851.669403,-93188.6799134,23.95,0.0,0.0,-0.535809932745,0.844338626365
1570518493901401697,78086,1570518493900352001,map,-22851.6125484,-93189.5263867,23.955,0.0,0.0,-0.68300239096,0.730416137516
1570518493944071467,78087,1570518493943872928,map,-22851.5591057,-93190.3711134,23.951,0.0,0.0,-0.684419453545,0.729088479959
1570518493990066380,78088,1570518493988265037,map,-22851.5074149,-93191.2121195,23.943,0.0,0.0,-0.685073986565,0.72847349501
1570518494033267156,78089,1570518494032851934,map,-22851.6710237,-93192.0450023,24.236,0.0,0.0,-0.772254167824,0.635313702259
1570518494119851636,78090,1570518494119568109,map,-22851.5946622,-93193.7242839,24.252,0.0,0.0,-0.69085969533,0.722988852866
1570518494198676057,78091,1570518494197587013,map,-22851.5660919,-93194.5575772,24.259,0.0,0.0,-0.694886376513,0.719119547597
1570518494297105633,78092,1570518494283528089,map,-22851.551105,-93195.4065519,24.395,0.0,0.0,-0.700838717555,0.71331976839
1570518494297133472,78093,1570518494286056995,map,-22851.52267,-93196.2453176,24.419,0.0,0.0,-0.695024614803,0.718985942017
1570518494329491997,78094,1570518494329227924,map,-22851.4922177,-93197.0789115,24.424,0.0,0.0,-0.69407960168,0.719898261237
1570518494373374797,78095,1570518494373182058,map,-22851.4633185,-93197.9142765,24.44,0.0,0.0,-0.694775530801,0.71922664147
1570518494417813729,78096,1570518494417437076,map,-22851.2439555,-93198.7860085,24.309,0.0,0.0,-0.614803802258,0.788680090233
1570518494506163799,78097,1570518494505353927,map,-22851.2130481,-93199.6197885,24.307,0.0,0.0,-0.693886311881,0.720084568772
1570518494549138364,78098,1570518494548918008,map,-22851.1737728,-93200.446878,24.303,0.0,0.0,-0.690133059993,0.723682499101
1570518494593904504,78099,1570518494593637943,map,-22851.1382871,-93201.2774894,24.302,0.0,0.0,-0.691851338706,0.722039974746
1570518494637579718,78100,1570518494637304067,map,-22851.3123157,-93202.9851119,26.748,0.0,0.0,-0.742087468051,0.670303058147
1570518494682268813,78101,1570518494681404113,map,-22851.2842016,-93203.812691,26.751,0.0,0.0,-0.694999332794,0.719010380604
1570518494725098933,78102,1570518494724664926,map,-22851.2587657,-93204.6425745,26.759,0.0,0.0,-0.696191209012,0.717856392668
1570518494769043927,78103,1570518494768775939,map,-22851.232787,-93205.467985,26.762,0.0,0.0,-0.695895820546,0.718142748307
1570518494812768698,78104,1570518494812495946,map,-22851.9152455,-93205.948104,25.223,0.0,0.0,-0.953383311403,0.301761928578
1570518494901482560,78105,1570518494901097059,map,-22851.8889402,-93206.7703722,25.212,0.0,0.0,-0.695710120455,0.71832264916
1570518494944681857,78106,1570518494944468021,map,-22851.8651838,-93207.591913,25.227,0.0,0.0,-0.696812486611,0.717253343319
1570518495030429813,78107,1570518495030141115,map,-22851.8416965,-93208.411752,25.223,0.0,0.0,-0.696908551526,0.717160003632
1570518495074381852,78108,1570518495074071884,map,-22852.0950624,-93210.108155,27.645,0.0,0.0,-0.757534259455,0.652795408801
1570518495076543676,78109,1570518495076272964,map,-22852.0669385,-93210.9257871,27.652,0.0,0.0,-0.694846585063,0.719157996011
1570518495120953594,78110,1570518495120644092,map,-22852.0422433,-93211.7423012,27.647,0.0,0.0,-0.696336536004,0.717715423149
1570518495196309673,78111,1570518495196103096,map,-22852.0187975,-93212.5605502,27.656,0.0,0.0,-0.696906795026,0.717161710528
1570518495240301578,78112,1570518495240047931,map,-22851.9255121,-93213.3207721,27.609,0.0,0.0,-0.662648241087,0.748930776898
1570518495327827709,78113,1570518495327538967,map,-22851.8997043,-93214.1356435,27.612,0.0,0.0,-0.695825007327,0.718211361076
1570518495372451846,78114,1570518495371746063,map,-22851.8748745,-93214.9529714,27.623,0.0,0.0,-0.696288275762,0.717762242694
1570518495416366007,78115,1570518495415932893,map,-22851.852696,-93215.7680186,27.633,0.0,0.0,-0.697423412685,0.716659321742
1570518495460257009,78116,1570518495459888935,map,-22851.6782726,-93215.6504991,24.767,0.0,0.0,0.292125656953,0.956379945707
1570518495503787119,78117,1570518495503474950,map,-22851.6611835,-93216.4666612,24.78,0.0,0.0,-0.699666432198,0.714469652018
1570518495547839200,78118,1570518495547540903,map,-22851.6467655,-93217.2823174,24.78,0.0,0.0,-0.700830276192,0.713328061955
1570518495593076566,78119,1570518495591680049,map,-22851.6313107,-93218.0962937,24.789,0.0,0.0,-0.700363002184,0.713786848556
1570518495679940324,78120,1570518495678952932,map,-22851.4647361,-93219.4538737,26.8,0.0,0.0,-0.66265135315,0.748928023356
1570518495724087913,78121,1570518495723726987,map,-22851.4447355,-93220.2595045,26.807,0.0,0.0,-0.698277040346,0.715827615369
1570518495772096900,78122,1570518495767344951,map,-22851.4253164,-93221.0669457,26.816,0.0,0.0,-0.69855452578,0.715556828289
1570518495811370654,78123,1570518495811069965,map,-22851.4110892,-93221.8739856,26.809,0.0,0.0,-0.700847289919,0.713311345917
1570518495855156127,78124,1570518495854871034,map,-22851.6037801,-93222.787037,26.961,0.0,0.0,-0.776689217735,0.629884004444
1570518495942636157,78125,1570518495942378044,map,-22851.5882738,-93223.5926379,26.968,0.0,0.0,-0.700269765615,0.71387831972
1570518495943310779,78126,1570518495942802906,map,-22851.5697332,-93224.3931806,26.965,0.0,0.0,-0.698872725877,0.715246050688
1570518496030529346,78127,1570518496030260086,map,-22851.5563733,-93225.1949119,26.976,0.0,0.0,-0.701191292534,0.712973191133
1570518496075794657,78128,1570518496074776887,map,-22850.990846,-93225.5048066,26.43,0.0,0.0,-0.248027427789,0.968753010351
1570518496118949419,78129,1570518496118720054,map,-22850.9764137,-93226.3027875,26.435,0.0,0.0,-0.70068428064,0.713471470253
1570518496156221695,78130,1570518496155407905,map,-22850.9653169,-93227.104809,26.439,0.0,0.0,-0.702198398538,0.711981326364
1570518496198139253,78131,1570518496196809053,map,-22850.9521925,-93227.903637,26.445,0.0,0.0,-0.701274795574,0.712891058362
1570518496248668904,78132,1570518496248197078,map,-22850.7986161,-93228.581125,26.401,0.0,0.0,-0.62406889162,0.781369322736
1570518496328310429,78133,1570518496328013896,map,-22850.7850322,-93229.3783827,26.406,0.0,0.0,-0.701057854975,0.713104399074
1570518496328936003,78134,1570518496328438997,map,-22850.769754,-93230.1720947,26.402,0.0,0.0,-0.700269417617,0.713878661084
1570518496416955329,78135,1570518496416688919,map,-22850.7555942,-93230.9697605,26.401,0.0,0.0,-0.700803543494,0.713354325301
1570518496460710064,78136,1570518496460469007,map,-22851.0137767,-93231.9686941,26.542,0.0,0.0,-0.790643819359,0.612276368081
1570518496504795614,78137,1570518496503951072,map,-22851.001316,-93232.7597366,26.546,0.0,0.0,-0.701516089909,0.712653615439
1570518496548954686,78138,1570518496548283100,map,-22850.9899245,-93233.5533094,26.552,0.0,0.0,-0.702013807746,0.712163333607
1570518496593767230,78139,1570518496592219114,map,-22850.9784224,-93234.3452,26.557,0.0,0.0,-0.701953260295,0.712223013081
1570518496637594421,78140,1570518496637043952,map,-22850.9584654,-93235.1380178,26.54,0.0,0.0,-0.698153155775,0.715948441636
1570518496724590765,78141,1570518496723643064,map,-22850.9470805,-93235.9281886,26.542,0.0,0.0,-0.701994780201,0.712182089476
1570518496767993774,78142,1570518496767674922,map,-22850.9323287,-93236.7138936,26.534,0.0,0.0,-0.700438467629,0.713712794523
1570518496818491027,78143,1570518496811623096,map,-22850.9227896,-93237.5014343,26.539,0.0,0.0,-0.702811621642,0.711376007808
1570518496856052756,78144,1570518496855628967,map,-22850.67528,-93238.1583961,26.882,0.0,0.0,-0.568964939283,0.822361780403
1570518496901920341,78145,1570518496899525880,map,-22850.6623701,-93238.9459454,26.879,0.0,0.0,-0.701287984911,0.7128780837
1570518496944101071,78146,1570518496943197965,map,-22850.6499136,-93239.7326614,26.887,0.0,0.0,-0.701487145898,0.712682105949
1570518496988123503,78147,1570518496987701892,map,-22850.6388009,-93240.5164159,26.886,0.0,0.0,-0.702076461591,0.71210156725
1570518497032432623,78148,1570518497031135082,map,-22851.0981454,-93241.6144791,27.097,0.0,0.0,-0.832441148997,0.55411346623
1570518497121444923,78149,1570518497118853092,map,-22851.0866439,-93242.3945368,27.088,0.0,0.0,-0.701875050642,0.712300086541
1570518497153213873,78150,1570518497152895927,map,-22851.0756311,-93243.175721,27.099,0.0,0.0,-0.702105350982,0.712073083414
1570518497198490951,78151,1570518497197592973,map,-22851.0652907,-93243.9585861,27.109,0.0,0.0,-0.702421763967,0.711760960931
1570518497241431746,78152,1570518497241117954,map,-22850.9474356,-93244.5976196,26.513,0.0,0.0,-0.639777951796,0.768559804047
1570518497286659756,78153,1570518497285168886,map,-22850.9332331,-93245.3783497,26.513,0.0,0.0,-0.700646718278,0.713508357461
1570518497329475764,78154,1570518497328984022,map,-22850.9202374,-93246.155989,26.516,0.0,0.0,-0.701174261758,0.712989940075
1570518497372955475,78155,1570518497372747898,map,-22850.9049864,-93246.9303985,26.528,0.0,0.0,-0.700110752178,0.714034267164
1570518497460598315,78156,1570518497460274934,map,-22850.8839126,-93247.7018275,26.532,0.0,0.0,-0.697385185509,0.716696520874
1570518497505446007,78157,1570518497504795074,map,-22850.8663861,-93248.4770748,26.539,0.0,0.0,-0.699070176234,0.715053067052
1570518497548731953,78158,1570518497548465967,map,-22850.8464408,-93249.2504977,26.538,0.0,0.0,-0.697932755679,0.716163297405
1570518497594774197,78159,1570518497593724012,map,-22850.8257301,-93250.0214265,26.535,0.0,0.0,-0.697547495945,0.716538548091
1570518497637623093,78160,1570518497636987924,map,-22850.7252243,-93250.7304708,26.491,0.0,0.0,-0.655612190941,0.755097778496
1570518497682915758,78161,1570518497682368040,map,-22850.7022338,-93251.5005179,26.499,0.0,0.0,-0.696475862992,0.717580220094
1570518497725273042,78162,1570518497724963903,map,-22850.6770791,-93252.2674089,26.491,0.0,0.0,-0.695419605125,0.718603905366
1570518497812022248,78163,1570518497811830997,map,-22850.6495903,-93253.0359143,26.496,0.0,0.0,-0.694353517747,0.719634068393
1570518497856036829,78164,1570518497855825901,map,-22850.7595422,-93253.8212864,26.77,0.0,0.0,-0.754535480631,0.656259254006
1570518497900300527,78165,1570518497900060892,map,-22850.747219,-93254.5946531,26.789,0.0,0.0,-0.701451202983,0.712717482481
1570518497944066423,78166,1570518497943828105,map,-22850.731828,-93255.3677318,26.806,0.0,0.0,-0.700033999603,0.714109514991
1570518497989761610,78167,1570518497989240884,map,-22850.7157788,-93256.1387413,26.831,0.0,0.0,-0.699710206725,0.714426781837
1570518498031977074,78168,1570518498031666994,map,-22850.5378521,-93256.8724046,26.538,0.0,0.0,-0.618188337703,0.786030011595
1570518498119492247,78169,1570518498119252920,map,-22850.5119598,-93257.635803,26.54,0.0,0.0,-0.695018837208,0.71899152702
1570518498120477055,78170,1570518498119673967,map,-22850.4812603,-93258.3955897,26.536,0.0,0.0,-0.692685916963,0.721239364179
1570518498198200507,78171,1570518498197494983,map,-22850.4487686,-93259.1551776,26.54,0.0,0.0,-0.691832237039,0.722058277283
1570518498241993816,78172,1570518498241699934,map,-22850.3591229,-93259.8717379,26.506,0.0,0.0,-0.661763578435,0.749712589101
1570518498288720358,78173,1570518498288425922,map,-22850.3282885,-93260.6322091,26.513,0.0,0.0,-0.692635118829,0.721288147805
1570518498373331432,78174,1570518498371388912,map,-22850.2951096,-93261.3902456,26.51,0.0,0.0,-0.691473922348,0.722401422142
1570518498416133889,78175,1570518498415316104,map,-22850.2617631,-93262.1480422,26.515,0.0,0.0,-0.69138917295,0.722482533718
1570518498418399592,78176,1570518498418158054,map,-22850.1878199,-93262.907753,26.43,0.0,0.0,-0.671984759348,0.74056497568
1570518498505807491,78177,1570518498505454063,map,-22850.1480712,-93263.6616646,26.428,0.0,0.0,-0.688240446954,0.725482658081
1570518498549355957,78178,1570518498549119949,map,-22850.1080806,-93264.4160205,26.426,0.0,0.0,-0.688135712287,0.725582001896
1570518498595349946,78179,1570518498593936920,map,-22850.0707642,-93265.1710723,26.434,0.0,0.0,-0.689433786988,0.724348709779
1570518498637087284,78180,1570518498636873006,map,-22849.9639987,-93265.8244252,26.278,0.0,0.0,-0.647582971301,0.761994944394
1570518498682671989,78181,1570518498681510925,map,-22849.9213698,-93266.574184,26.278,0.0,0.0,-0.686744056459,0.726899305901
1570518498724837656,78182,1570518498724636077,map,-22849.8785906,-93267.3245903,26.284,0.0,0.0,-0.686689305231,0.726951028668
1570518498769008519,78183,1570518498768621921,map,-22849.8348072,-93268.0741486,26.294,0.0,0.0,-0.686180398096,0.727431413447
1570518498812750937,78184,1570518498812562942,map,-22849.8370287,-93268.846998,26.292,0.0,0.0,-0.708122322929,0.706089778831
1570518498901136592,78185,1570518498900907993,map,-22849.7957021,-93269.6014312,26.289,0.0,0.0,-0.687496800223,0.726187406723
1570518498946156528,78186,1570518498945848941,map,-22849.7547896,-93270.3514815,26.297,0.0,0.0,-0.687580778966,0.726107893082
1570518498989372120,78187,1570518498989126920,map,-22849.7098911,-93271.1044261,26.311,0.0,0.0,-0.685738702993,0.72784780773
1570518499032343161,78188,1570518499032145023,map,-22849.6095612,-93271.8351944,26.326,0.0,0.0,-0.657260314098,0.753663638178
1570518499076327762,78189,1570518499076143980,map,-22849.5645383,-93272.5870115,26.318,0.0,0.0,-0.685646298151,0.727934855487
1570518499151910248,78190,1570518499151655912,map,-22849.5167304,-93273.3362841,26.322,0.0,0.0,-0.684223536308,0.729272344438
1570518499198346943,78191,1570518499196297883,map,-22849.4699751,-93274.0875325,26.317,0.0,0.0,-0.684793180913,0.728737469447
1570518499240355389,78192,1570518499240055084,map,-22849.4252825,-93274.8378696,26.32,0.0,0.0,-0.685763097306,0.727824823961
1570518499327907228,78193,1570518499327564001,map,-22849.3801525,-93275.5893542,26.318,0.0,0.0,-0.685584970926,0.727992615101
1570518499372086024,78194,1570518499371732950,map,-22849.3352771,-93276.339433,26.315,0.0,0.0,-0.685667240616,0.727915129081
1570518499418616759,78195,1570518499415877103,map,-22849.2849544,-93277.0910046,26.304,0.0,0.0,-0.68307867746,0.730344795558
1570518499459831362,78196,1570518499459525108,map,-22849.2711472,-93277.8540028,26.34,0.0,0.0,-0.700680766421,0.713474921471
1570518499504859948,78197,1570518499503515958,map,-22849.2192043,-93278.6073534,26.349,0.0,0.0,-0.682354066868,0.731021837861
1570518499549382685,78198,1570518499547513008,map,-22849.1643208,-93279.3627083,26.354,0.0,0.0,-0.681003590329,0.732280076173
1570518499591705482,78199,1570518499591312885,map,-22849.1080774,-93280.1207104,26.369,0.0,0.0,-0.68044246002,0.732801513782
1570518499679241954,78200,1570518499678816080,map,-22849.3377332,-93281.1086226,26.477,0.0,0.0,-0.783079876902,0.621921141617
1570518499723423078,78201,1570518499723179101,map,-22849.2863808,-93281.8733609,26.481,0.0,0.0,-0.683008266845,0.730410643009
1570518499767229528,78202,1570518499766972064,map,-22849.2415605,-93282.639303,26.478,0.0,0.0,-0.68614259693,0.727467069137
1570518499811403606,78203,1570518499811100959,map,-22849.1873548,-93283.4045477,26.491,0.0,0.0,-0.681668012538,0.731661616243
1570518499855141138,78204,1570518499854866027,map,-22849.2506199,-93284.257522,26.575,0.0,0.0,-0.732791532541,0.680453209145
1570518499942876531,78205,1570518499942387104,map,-22849.1911684,-93285.0198587,26.571,0.0,0.0,-0.679061929582,0.734080987216
1570518499943947060,78206,1570518499942846059,map,-22849.1283006,-93285.7822225,26.569,0.0,0.0,-0.677426997075,0.735590010559
1570518500030665612,78207,1570518500030255079,map,-22849.0693115,-93286.5472944,26.57,0.0,0.0,-0.679384087054,0.733782844074
1570518500074785313,78208,1570518500074455976,map,-22849.0255664,-93287.3241607,26.558,0.0,0.0,-0.686942250003,0.726712009781
1570518500118695607,78209,1570518500118472099,map,-22848.9683011,-93288.0924268,26.559,0.0,0.0,-0.680318991481,0.732916141062
1570518500152436611,78210,1570518500152220010,map,-22848.9137913,-93288.8635702,26.564,0.0,0.0,-0.681721717679,0.73161157703
1570518500197520031,78211,1570518500196703910,map,-22848.8564785,-93289.6370688,26.57,0.0,0.0,-0.68048032591,0.732766351609
1570518500240916468,78212,1570518500240655899,map,-22848.8273937,-93290.42917,26.626,0.0,0.0,-0.694012349289,0.719963095606
1570518500328341086,78213,1570518500328005075,map,-22848.7658031,-93291.2042879,26.633,0.0,0.0,-0.67852411985,0.734578122995
1570518500328728815,78214,1570518500328460931,map,-22848.701648,-93291.9800594,26.641,0.0,0.0,-0.677341465749,0.735668769744
1570518500416988639,78215,1570518500416049957,map,-22848.6347454,-93292.7561151,26.648,0.0,0.0,-0.676058430123,0.736848016255
1570518500462985292,78216,1570518500460455894,map,-22848.6099118,-93293.5661768,26.809,0.0,0.0,-0.696188921512,0.717858611123
1570518500504232066,78217,1570518500504019021,map,-22848.5470701,-93294.3449587,26.806,0.0,0.0,-0.678074152262,0.734993499315
1570518500548279161,78218,1570518500548010110,map,-22848.4848989,-93295.1247188,26.802,0.0,0.0,-0.678425042872,0.73466962725
1570518500593691279,78219,1570518500592425107,map,-22848.4216889,-93295.9079759,26.806,0.0,0.0,-0.678070786437,0.734996604468
1570518500637025430,78220,1570518500636004924,map,-22848.3158901,-93296.6920429,26.907,0.0,0.0,-0.658132210416,0.75290237987
1570518500723987044,78221,1570518500723507881,map,-22848.2513787,-93297.4770967,26.913,0.0,0.0,-0.677532879854,0.735492485833
1570518500767900508,78222,1570518500767663955,map,-22848.1847618,-93298.2641156,26.917,0.0,0.0,-0.676630220417,0.736322989468
1570518500811770314,78223,1570518500811507940,map,-22848.1167696,-93299.0537449,26.923,0.0,0.0,-0.676095791401,0.736813735519
1570518500856071008,78224,1570518500855856895,map,-22847.963801,-93299.7861988,26.702,0.0,0.0,-0.630700677294,0.776026195216
1570518500899648806,78225,1570518500899307966,map,-22847.8893456,-93300.5778597,26.694,0.0,0.0,-0.673187793264,0.7394715647
1570518500944261036,78226,1570518500943213939,map,-22847.8208516,-93301.3732219,26.71,0.0,0.0,-0.676092016133,0.736817199664
1570518500989560973,78227,1570518500988262891,map,-22847.7532737,-93302.170597,26.714,0.0,0.0,-0.676591564849,0.736358509406
1570518501031277917,78228,1570518501031095027,map,-22847.6529827,-93302.9711977,26.672,0.0,0.0,-0.661703002928,0.749766054124
1570518501118890846,78229,1570518501118664979,map,-22847.5816519,-93303.7736298,26.677,0.0,0.0,-0.675076259486,0.737747954167
1570518501153747921,78230,1570518501152896881,map,-22847.5107773,-93304.576338,26.672,0.0,0.0,-0.675295431824,0.73754734069
1570518501199224980,78231,1570518501198285102,map,-22847.4439457,-93305.3806631,26.677,0.0,0.0,-0.677198293767,0.735800564636
1570518501241153249,78232,1570518501240849018,map,-22847.3562268,-93306.1932683,26.734,0.0,0.0,-0.668085204821,0.74408477951
1570518501285899673,78233,1570518501285598993,map,-22847.2841101,-93307.0031904,26.749,0.0,0.0,-0.675021983025,0.737797616175
1570518501328929921,78234,1570518501328727006,map,-22847.2105263,-93307.8154272,26.766,0.0,0.0,-0.674453693059,0.73831715131
1570518501373864583,78235,1570518501373250007,map,-22847.1357656,-93308.6305698,26.778,0.0,0.0,-0.674043165537,0.738691959475
1570518501459591442,78236,1570518501459254980,map,-22846.8970307,-93309.6854091,29.419,0.0,0.0,-0.624203243939,0.781261998472
1570518501506801962,78237,1570518501504879951,map,-22846.8212989,-93310.5068773,29.431,0.0,0.0,-0.673868866072,0.738850966934
1570518501548783174,78238,1570518501548489093,map,-22846.7484685,-93311.3288744,29.431,0.0,0.0,-0.67518293911,0.737650322805
1570518501595808213,78239,1570518501595007896,map,-22846.6735808,-93312.1539088,29.423,0.0,0.0,-0.674389504737,0.738375782309
1570518501637820862,78240,1570518501636904954,map,-22846.8572418,-93313.1224312,30.039,0.0,0.0,-0.770165520004,0.637844081102
1570518501683190755,78241,1570518501681925058,map,-22846.7780924,-93313.9434458,30.031,0.0,0.0,-0.67232453075,0.740256526721
1570518501725246255,78242,1570518501724966049,map,-22846.7016322,-93314.7711466,30.036,0.0,0.0,-0.6738008119,0.738913029986
1570518501770829431,78243,1570518501770262956,map,-22846.6247782,-93315.5992182,30.032,0.0,0.0,-0.673641713906,0.739058077072
1570518501856368212,78244,1570518501855879068,map,-22846.5372587,-93316.4307925,30.083,0.0,0.0,-0.669078673948,0.743191582345
1570518501902061803,78245,1570518501900693893,map,-22846.4622215,-93317.2628161,30.075,0.0,0.0,-0.674602901634,0.738180821417
1570518501944034281,78246,1570518501943830966,map,-22846.3872719,-93318.0994803,30.078,0.0,0.0,-0.674824353034,0.737978382172
1570518501988075728,78247,1570518501987797975,map,-22846.3142976,-93318.9367126,30.071,0.0,0.0,-0.675709951934,0.737167593467
1570518502032226377,78248,1570518502031618118,map,-22846.5866708,-93319.3600692,27.396,0.0,0.0,-0.877798445868,0.47903015399
1570518502120246149,78249,1570518502119507074,map,-22846.4298976,-93321.0532164,27.399,0.0,0.0,-0.673721615211,0.738985240175
1570518502199716961,78250,1570518502199438095,map,-22846.3497513,-93321.9004138,27.395,0.0,0.0,-0.672985416101,0.739655750816
1570518502241829790,78251,1570518502241570949,map,-22846.1212712,-93322.8733213,28.531,0.0,0.0,-0.621038333861,0.783780191046
1570518502286480204,78252,1570518502286211013,map,-22846.0418274,-93323.7221809,28.531,0.0,0.0,-0.67335666066,0.739317798747
1570518502330205653,78253,1570518502329969882,map,-22845.9568832,-93324.5695014,28.527,0.0,0.0,-0.670913395367,0.741535714525
1570518502374282317,78254,1570518502373866081,map,-22845.8726461,-93325.4202774,28.529,0.0,0.0,-0.671367908109,0.741124235173
1570518502417507625,78255,1570518502417278051,map,-22844.7704837,-93327.2370205,36.536,0.0,0.0,-0.490569920198,0.871401832335
1570518502505427040,78256,1570518502504843950,map,-22844.6843283,-93328.0918319,36.532,0.0,0.0,-0.670715761583,0.741714478195
1570518502549067002,78257,1570518502548803091,map,-22844.5990168,-93328.9501172,36.537,0.0,0.0,-0.671226391485,0.741252407331
1570518502593721462,78258,1570518502593245029,map,-22844.5097604,-93329.8156415,36.558,0.0,0.0,-0.669858194819,0.742489056373
1570518502637223338,78259,1570518502636971950,map,-22844.4204022,-93330.6829226,36.59,0.0,0.0,-0.669891773091,0.742458761376
1570518502680962034,78260,1570518502680748939,map,-22844.3245914,-93331.5504417,36.611,0.0,0.0,-0.667167584231,0.744907655049
1570518502725675729,78261,1570518502725445985,map,-22844.2277911,-93332.416965,36.617,0.0,0.0,-0.66670062965,0.745325613691
1570518502769438327,78262,1570518502769181966,map,-22844.140448,-93333.2764941,36.565,0.0,0.0,-0.670411507343,0.741989495089
1570518502812778614,78263,1570518502812505960,map,-22844.8468695,-93333.3263164,29.886,0.0,0.0,-0.999380349687,0.0351982479531
1570518502900732449,78264,1570518502900408983,map,-22844.7551458,-93334.1948606,29.877,0.0,0.0,-0.668946088042,0.743310925047
1570518502944572187,78265,1570518502944336891,map,-22844.65939,-93335.0661514,29.876,0.0,0.0,-0.66736673539,0.744729239721
1570518502988351078,78266,1570518502988125085,map,-22844.5623943,-93335.9394975,29.881,0.0,0.0,-0.666939490971,0.745111881118
1570518503032986361,78267,1570518503032041072,map,-22844.6458407,-93336.6245417,28.304,0.0,0.0,-0.748638076094,0.662978906921
1570518503077135412,78268,1570518503076602935,map,-22844.5427582,-93337.5046886,28.314,0.0,0.0,-0.66470875106,0.74710258751
1570518503120253317,78269,1570518503120024919,map,-22844.4389162,-93338.3847265,28.326,0.0,0.0,-0.664385351312,0.747390195923
1570518503199874720,78270,1570518503196413040,map,-22844.3339806,-93339.2646377,28.335,0.0,0.0,-0.663920968087,0.747802746808
1570518503240205473,78271,1570518503239993095,map,-22844.0181852,-93339.9576028,27.267,0.0,0.0,-0.540977937252,0.841036783623
1570518503327773102,78272,1570518503327500104,map,-22843.9090482,-93340.8453824,27.261,0.0,0.0,-0.662565477552,0.74900399729
1570518503372062845,78273,1570518503371747016,map,-22843.8001597,-93341.7353616,27.26,0.0,0.0,-0.662780551066,0.748813689197
1570518503417235587,78274,1570518503415906906,map,-22843.6913297,-93342.6244346,27.261,0.0,0.0,-0.662758795722,0.748832944449
1570518503459861367,78275,1570518503459619998,map,-22843.5007668,-93343.5265265,26.872,0.0,0.0,-0.629807813791,0.776751001086
1570518503505726866,78276,1570518503503751993,map,-22843.3901044,-93344.417564,26.875,0.0,0.0,-0.662099637887,0.749415818828
1570518503547621106,78277,1570518503547409057,map,-22843.2828747,-93345.309055,26.867,0.0,0.0,-0.663543307038,0.748137874783
1570518503591656378,78278,1570518503591330051,map,-22843.1732808,-93346.2023639,26.861,0.0,0.0,-0.662657500191,0.748922584411
1570518503679174594,78279,1570518503678837060,map,-22843.097065,-93347.0670419,26.535,0.0,0.0,-0.67535060656,0.737496819125
1570518503726335736,78280,1570518503723293066,map,-22842.9847443,-93347.9628167,26.53,0.0,0.0,-0.661658787878,0.749805073618
1570518503767313981,78281,1570518503767071008,map,-22842.8715579,-93348.8585937,26.532,0.0,0.0,-0.661302241611,0.750119553964
1570518503813054871,78282,1570518503810933113,map,-22842.7579659,-93349.7560542,26.525,0.0,0.0,-0.661222838243,0.750189548172
1570518503855823959,78283,1570518503855072021,map,-22842.9443533,-93350.6193678,25.259,0.0,0.0,-0.778150149464,0.62807829519
1570518503899096732,78284,1570518503898817062,map,-22842.8292233,-93351.5211401,25.258,0.0,0.0,-0.660816608808,0.75054740658
1570518503944080496,78285,1570518503942943096,map,-22842.7097124,-93352.4257892,25.263,0.0,0.0,-0.659177688544,0.751987217263
1570518504030812801,78286,1570518504030323028,map,-22842.5895618,-93353.3296634,25.271,0.0,0.0,-0.658874273058,0.752253077297
1570518504074758192,78287,1570518504074548959,map,-22842.5339006,-93354.2287343,25.495,0.0,0.0,-0.684911887512,0.728625902878
1570518504119763538,78288,1570518504118465900,map,-22842.4162457,-93355.1348394,25.483,0.0,0.0,-0.660012935352,0.751254234709
1570518504152479370,78289,1570518504152210950,map,-22842.2977919,-93356.0432576,25.482,0.0,0.0,-0.659810176813,0.751432319357
1570518504198719265,78290,1570518504196990013,map,-22842.1795858,-93356.953561,25.501,0.0,0.0,-0.660010446031,0.75125642169
1570518504243373599,78291,1570518504240884065,map,-22842.0927283,-93357.8674092,25.41,0.0,0.0,-0.672822617921,0.739803842118
1570518504338523572,78292,1570518504328278064,map,-22841.9761101,-93358.7812215,25.404,0.0,0.0,-0.660836376109,0.750530002073
1570518504338545496,78293,1570518504328684091,map,-22841.8606201,-93359.6968799,25.403,0.0,0.0,-0.661386281919,0.750045456015
1570518504416174565,78294,1570518504415914058,map,-22841.7432118,-93360.6105277,25.406,0.0,0.0,-0.660508576253,0.750818500502
1570518504460659196,78295,1570518504460458040,map,-22841.820858,-93361.187112,24.088,0.0,0.0,-0.752815049091,0.658232103336
1570518504504525532,78296,1570518504504278898,map,-22841.6984011,-93362.1038048,24.095,0.0,0.0,-0.658631427064,0.752465709042
1570518504549328974,78297,1570518504549114942,map,-22841.5772353,-93363.0206608,24.092,0.0,0.0,-0.659160632868,0.752002167601
1570518504592427444,78298,1570518504592073917,map,-22841.4571039,-93363.9383091,24.092,0.0,0.0,-0.659619354321,0.751599831962
1570518504637693342,78299,1570518504635989904,map,-22841.4290262,-93364.9978312,24.447,0.0,0.0,-0.697677893507,0.716411583457
1570518504723863434,78300,1570518504723612070,map,-22841.305721,-93365.9153581,24.447,0.0,0.0,-0.658334549957,0.752725461461
1570518504768035211,78301,1570518504767637014,map,-22841.1821465,-93366.8344758,24.454,0.0,0.0,-0.658312203761,0.752745004885
1570518504811871611,78302,1570518504811649084,map,-22841.057954,-93367.7553884,24.457,0.0,0.0,-0.658160972228,0.752877237427
1570518504857319798,78303,1570518504855680942,map,-22840.9481173,-93368.7031662,24.511,0.0,0.0,-0.665162298313,0.746698812711
1570518504900679324,78304,1570518504899646043,map,-22840.824817,-93369.6226714,24.504,0.0,0.0,-0.658443398498,0.752630248512
1570518504950232687,78305,1570518504943581104,map,-22840.704219,-93370.5480123,24.516,0.0,0.0,-0.659835102007,0.75141043256
1570518504987448255,78306,1570518504987211942,map,-22840.5803746,-93371.4745816,24.515,0.0,0.0,-0.658604254518,0.752489492239
1570518505031402560,78307,1570518505031141042,map,-22840.4487256,-93372.3769871,24.325,0.0,0.0,-0.654079988628,0.756425388572
1570518505120244212,78308,1570518505118635892,map,-22840.3243097,-93373.2997122,24.317,0.0,0.0,-0.658169416885,0.752869855073
1570518505153019137,78309,1570518505152702093,map,-22840.2001231,-93374.2230653,24.317,0.0,0.0,-0.658295138953,0.75275992855
1570518505199749641,78310,1570518505197324991,map,-22840.0739623,-93375.1462939,24.318,0.0,0.0,-0.657497733529,0.753456521907
1570518505241264357,78311,1570518505241024017,map,-22839.8726263,-93376.5579856,27.961,0.0,0.0,-0.655289374461,0.755377942304
1570518505285857599,78312,1570518505285120964,map,-22839.749392,-93377.4796723,27.952,0.0,0.0,-0.658587195231,0.752504422763
1570518505329656304,78313,1570518505328813076,map,-22839.6269582,-93378.399656,27.946,0.0,0.0,-0.658817303694,0.752302971118
1570518505374558347,78314,1570518505373481035,map,-22839.5041314,-93379.3203617,27.937,0.0,0.0,-0.658698114314,0.752407332632
1570518505418620479,78315,1570518505417614936,map,-22839.4044009,-93380.1633189,27.489,0.0,0.0,-0.664269969872,0.747492747206
1570518505505641295,78316,1570518505504406929,map,-22839.2792437,-93381.0872106,27.492,0.0,0.0,-0.657935707118,0.753074103458
1570518505548769828,78317,1570518505548535108,map,-22839.154575,-93382.012118,27.494,0.0,0.0,-0.658185955688,0.752855396298
1570518505593703564,78318,1570518505592936038,map,-22839.0304008,-93382.9344541,27.493,0.0,0.0,-0.658245275749,0.752803531443
1570518505636625512,78319,1570518505636334896,map,-22838.9071865,-93383.8581191,27.49,0.0,0.0,-0.658701041252,0.752404770222
1570518505681874444,78320,1570518505680939912,map,-22838.7794246,-93384.7847907,27.494,0.0,0.0,-0.657046473147,0.75385007271
1570518505725897040,78321,1570518505725070953,map,-22838.6539081,-93385.710754,27.495,0.0,0.0,-0.657904286406,0.753101553529
1570518505768372487,78322,1570518505768126010,map,-22838.5266239,-93386.6342073,27.499,0.0,0.0,-0.657060097431,0.753838197735
1570518505856484805,78323,1570518505856210947,map,-22838.4212456,-93387.6462413,27.897,0.0,0.0,-0.669490362227,0.742820742094
1570518505900605923,78324,1570518505899928092,map,-22838.2955513,-93388.5679526,27.893,0.0,0.0,-0.657601714103,0.753365771461
1570518505944723883,78325,1570518505944305896,map,-22838.1717084,-93389.489271,27.888,0.0,0.0,-0.658323235385,0.75273535705
1570518505987949890,78326,1570518505987648010,map,-22838.0478177,-93390.4097021,27.881,0.0,0.0,-0.658256120868,0.752794048423
1570518506031799012,78327,1570518506031565904,map,-22837.9113142,-93391.3984999,28.236,0.0,0.0,-0.656980614802,0.753907468973
1570518506119605901,78328,1570518506119129896,map,-22837.7856968,-93392.3266637,28.255,0.0,0.0,-0.657982899656,0.753032870305
1570518506119854043,78329,1570518506119548082,map,-22837.6613731,-93393.2560815,28.288,0.0,0.0,-0.658565033414,0.752523818071
1570518506198623869,78330,1570518506198142051,map,-22837.5335001,-93394.1809414,28.27,0.0,0.0,-0.656902128922,0.753975857052
1570518506241675985,78331,1570518506241458892,map,-22837.6467326,-93395.0508735,27.525,0.0,0.0,-0.75135667528,0.659896314971
1570518506287744960,78332,1570518506285942077,map,-22837.5231259,-93395.9816021,27.544,0.0,0.0,-0.658919369585,0.75221357631
1570518506329470935,78333,1570518506329267978,map,-22837.3998948,-93396.9107768,27.547,0.0,0.0,-0.658986702138,0.752154589433
1570518506379389803,78334,1570518506376779079,map,-22837.2775621,-93397.8409845,27.56,0.0,0.0,-0.659398052538,0.751793993264
1570518506459504420,78335,1570518506459115982,map,-22837.0777904,-93398.5962419,26.177,0.0,0.0,-0.610035281175,0.792374252309
1570518506507840139,78336,1570518506504981040,map,-22836.9545138,-93399.5254721,26.195,0.0,0.0,-0.658971539096,0.752167873989
1570518506594596383,78337,1570518506590913057,map,-22836.8351816,-93400.4533427,26.211,0.0,0.0,-0.66047025653,0.750852209319
1570518506635591321,78338,1570518506634843111,map,-22836.7153582,-93401.3791438,26.232,0.0,0.0,-0.660168140792,0.751117850862
1570518506637562275,78339,1570518506637278079,map,-22836.3729797,-93402.1411946,25.116,0.0,0.0,-0.543220591733,0.839590012278
1570518506682964575,78340,1570518506681987047,map,-22836.2501831,-93403.0681494,25.116,0.0,0.0,-0.659042574633,0.752105634084
1570518506724983830,78341,1570518506724679946,map,-22836.1290988,-93403.9997407,25.11,0.0,0.0,-0.659965296244,0.751296085277
1570518506768937142,78342,1570518506768733024,map,-22836.0102346,-93404.9326205,25.114,0.0,0.0,-0.660910532507,0.750464701383
1570518506814113627,78343,1570518506813560962,map,-22835.5219884,-93405.757217,26.32,0.0,0.0,-0.495231892699,0.868760825805
1570518506901166236,78344,1570518506900620937,map,-22835.4034615,-93406.6854183,26.326,0.0,0.0,-0.660807592613,0.750555344758
1570518506987768046,78345,1570518506986959934,map,-22835.2848578,-93407.61325,26.341,0.0,0.0,-0.660758213724,0.750598816277
1570518506989148489,78346,1570518506988985061,map,-22835.1660713,-93408.5408788,26.354,0.0,0.0,-0.660675140687,0.750671937985
1570518507032312723,78347,1570518507032037973,map,-22835.2039171,-93409.3513741,25.472,0.0,0.0,-0.723409892374,0.690418805955
1570518507076323695,78348,1570518507075989007,map,-22835.0850817,-93410.2837362,25.477,0.0,0.0,-0.6608958461,0.750477634982
1570518507152053033,78349,1570518507151700019,map,-22834.9654311,-93411.2179492,25.485,0.0,0.0,-0.660666834282,0.750679248468
1570518507198211948,78350,1570518507196361064,map,-22834.8460676,-93412.1516069,25.491,0.0,0.0,-0.660752242277,0.750604072948
1570518507240282321,78351,1570518507239936113,map,-22834.7394814,-93413.0641735,25.236,0.0,0.0,-0.664827188929,0.746997194681
1570518507327763709,78352,1570518507327455997,map,-22834.6231451,-93413.9940332,25.238,0.0,0.0,-0.6617613348,0.749714569529
1570518507371970334,78353,1570518507371767044,map,-22834.5060585,-93414.9274448,25.238,0.0,0.0,-0.661640368404,0.749821327316
1570518507416516564,78354,1570518507415990114,map,-22834.3883352,-93415.8613201,25.238,0.0,0.0,-0.661411747489,0.750022999837
1570518507459879479,78355,1570518507459625959,map,-22834.2586608,-93416.8127346,25.343,0.0,0.0,-0.657629107141,0.75334185961
1570518507505819880,78356,1570518507503665924,map,-22834.142136,-93417.7462002,25.351,0.0,0.0,-0.661865205684,0.74962287152
1570518507547752323,78357,1570518507547509908,map,-22834.0237554,-93418.6783207,25.352,0.0,0.0,-0.6610637595,0.750329731435
1570518507591909713,78358,1570518507591527938,map,-22833.9048916,-93419.6115518,25.36,0.0,0.0,-0.660928419716,0.750448948304
1570518507680286628,78359,1570518507678939104,map,-22833.7743319,-93420.5491203,25.431,0.0,0.0,-0.656535323749,0.754295279496
1570518507723787871,78360,1570518507723225116,map,-22833.6543267,-93421.4813559,25.436,0.0,0.0,-0.66042607068,0.750891074102
1570518507767906266,78361,1570518507767302036,map,-22833.535341,-93422.4144209,25.446,0.0,0.0,-0.660871782823,0.750498825228
1570518507812984565,78362,1570518507811414003,map,-22833.4127119,-93423.3478094,25.451,0.0,0.0,-0.659446294736,0.751751677324
1570518507855833678,78363,1570518507855000972,map,-22833.4006158,-93424.3567425,26.014,0.0,0.0,-0.702855561642,0.711332594128
1570518507942771638,78364,1570518507942379951,map,-22833.28264,-93425.2929111,26.026,0.0,0.0,-0.661426133802,0.750010312945
1570518507943431249,78365,1570518507942820072,map,-22833.1661986,-93426.2294086,26.033,0.0,0.0,-0.662047192955,0.749462150012
1570518508030535029,78366,1570518508030251979,map,-22833.0503693,-93427.1617631,26.042,0.0,0.0,-0.662085565725,0.749428251175
1570518508074842685,78367,1570518508074596881,map,-22832.8930742,-93428.1069978,26.18,0.0,0.0,-0.646470748167,0.762938773274
1570518508118627459,78368,1570518508118396997,map,-22832.7788681,-93429.0387935,26.182,0.0,0.0,-0.66270082753,0.748884245522
1570518508152661133,78369,1570518508152400016,map,-22832.6637487,-93429.969667,26.19,0.0,0.0,-0.662294019846,0.749244039867
1570518508196730311,78370,1570518508196547985,map,-22832.5482416,-93430.9034074,26.198,0.0,0.0,-0.662280953865,0.749255589334
1570518508240847505,78371,1570518508240611076,map,-22832.462799,-93431.8733287,26.472,0.0,0.0,-0.675369371252,0.737479635227
1570518508329348008,78372,1570518508328368902,map,-22832.2301851,-93433.7447145,26.486,0.0,0.0,-0.662060758945,0.749450166098
1570518508419158036,78373,1570518508416482925,map,-22832.1120691,-93434.6795892,26.492,0.0,0.0,-0.661306399011,0.750115888798
1570518508463978839,78374,1570518508460402965,map,-22831.9823414,-93435.622129,26.563,0.0,0.0,-0.657133588708,0.753774134998
1570518508505686711,78375,1570518508504240036,map,-22831.8662098,-93436.5551683,26.565,0.0,0.0,-0.661999689223,0.749504110375
1570518508548982701,78376,1570518508547946929,map,-22831.7482868,-93437.4883045,26.57,0.0,0.0,-0.661295833034,0.75012520369
1570518508592784334,78377,1570518508591898918,map,-22831.6318094,-93438.4227129,26.583,0.0,0.0,-0.661930401063,0.749565303459
1570518508636168294,78378,1570518508635718107,map,-22831.5221366,-93439.3640004,26.672,0.0,0.0,-0.664932073729,0.746903834055
1570518508724201689,78379,1570518508723309040,map,-22831.4073767,-93440.29907,26.684,0.0,0.0,-0.66264062412,0.748937516263
1570518508769049750,78380,1570518508767843008,map,-22831.2942319,-93441.2364097,26.69,0.0,0.0,-0.663385831492,0.748277514412
1570518508812092442,78381,1570518508811841964,map,-22831.181288,-93442.1751355,26.701,0.0,0.0,-0.663530460914,0.748149268154
1570518508859101679,78382,1570518508855844020,map,-22831.1907206,-93443.1349817,26.176,0.0,0.0,-0.710572541892,0.703623949783
1570518508900734440,78383,1570518508899580955,map,-22831.0780339,-93444.0733371,26.19,0.0,0.0,-0.663613998699,0.748075170508
1570518508944611631,78384,1570518508943568944,map,-22830.9660371,-93445.0143347,26.198,0.0,0.0,-0.66400862406,0.747724914106
1570518508987754199,78385,1570518508987492084,map,-22830.865009,-93445.9516253,26.261,0.0,0.0,-0.668144227518,0.744031781065
1570518509031507741,78386,1570518509031181097,map,-22830.9470876,-93447.0100194,26.292,0.0,0.0,-0.733933924445,0.679220873169
1570518509119139901,78387,1570518509118830919,map,-22830.8336536,-93447.9531283,26.302,0.0,0.0,-0.663545008786,0.748136365454
1570518509157297364,78388,1570518509153513908,map,-22830.7225944,-93448.8926444,26.312,0.0,0.0,-0.66430730528,0.747459566901
1570518509198260857,78389,1570518509197962045,map,-22830.6118412,-93449.8331026,26.33,0.0,0.0,-0.664470884021,0.747314153679
1570518509243056902,78390,1570518509241517066,map,-22830.4151184,-93450.8410585,26.69,0.0,0.0,-0.635784625466,0.771866510493
1570518509285731131,78391,1570518509285195112,map,-22830.3027626,-93451.7842571,26.701,0.0,0.0,-0.663970685664,0.747758603146
1570518509329103180,78392,1570518509328855991,map,-22830.1904894,-93452.7301364,26.723,0.0,0.0,-0.664127345379,0.747619468125
1570518509372928971,78393,1570518509372730970,map,-22830.0774084,-93453.6748345,26.739,0.0,0.0,-0.663757413207,0.747947923597
1570518509462298529,78394,1570518509460923910,map,-22830.0014705,-93454.8436539,26.234,0.0,0.0,-0.683800741251,0.729668792168
1570518509504782120,78395,1570518509504523038,map,-22829.8901971,-93455.7886063,26.237,0.0,0.0,-0.664474381135,0.747311044221
1570518509549237864,78396,1570518509549016952,map,-22829.7794414,-93456.7341859,26.238,0.0,0.0,-0.664704979927,0.747105942728
1570518509593080420,78397,1570518509592737913,map,-22829.6671261,-93457.6814705,26.252,0.0,0.0,-0.664175855063,0.747576373056
