%time,field.header.seq,field.header.stamp,field.header.frame_id,field.pose.position.x,field.pose.position.y,field.pose.position.z,field.pose.orientation.x,field.pose.orientation.y,field.pose.orientation.z,field.pose.orientation.w
1570512685548018716,6415,1570512685479527000,/map,-18066.578125,-93626.1640625,38.9391479492,-0.0182194213995,-0.00153835891359,0.502704387163,0.864264997129
1570512685650517462,6416,1570512685579775000,/map,-18066.4980469,-93626.0078125,38.9474067688,-0.0181330368632,-0.00151420596312,0.501181011009,0.865151139604
1570512685777289249,6417,1570512685680024000,/map,-18066.4726562,-93625.859375,38.9465026855,-0.0175950414978,-0.00134436725564,0.499317606733,0.866239305733
1570512685867549298,6418,1570512685780193000,/map,-18066.3828125,-93625.7578125,38.9502029419,-0.0166493704627,-0.00151842173638,0.497606554157,0.86724172531
1570512685940947051,6419,1570512685880697000,/map,-18066.3046875,-93625.6484375,38.9459877014,-0.0162823754753,-0.00249506744606,0.495317283158,0.868555955534
1570512686059423311,6420,1570512685980665000,/map,-18066.2246094,-93625.5,38.9491004944,-0.0164615742599,-0.00327014117359,0.492566954353,0.870112704326
1570512686145432694,6421,1570512686080811000,/map,-18066.1503906,-93625.375,38.9530906677,-0.0166482717987,-0.00408108304794,0.489385569664,0.871899044621
1570512686239328794,6422,1570512686181159000,/map,-18066.0566406,-93625.265625,38.9430961609,-0.0168947804292,-0.00579979340791,0.485796765442,0.873889255842
1570512686354250209,6423,1570512686281309000,/map,-18065.9570312,-93625.1640625,38.9340820312,-0.0163176319865,-0.00720099217582,0.482011337075,0.875983419666
1570512686469361731,6424,1570512686381555000,/map,-18065.8984375,-93625.0078125,38.9289016724,-0.0146125487798,-0.00795851669498,0.476113735569,0.879226277037
1570512686545216515,6425,1570512686481827000,/map,-18065.7734375,-93624.8359375,38.9220466614,-0.0133395745228,-0.00898151670955,0.46996129371,0.882540520613
1570512686672187259,6426,1570512686581950000,/map,-18065.6933594,-93624.6171875,38.9236564636,-0.0128951196974,-0.00965793500346,0.462968042285,0.886228543888
1570512686772909938,6427,1570512686682297000,/map,-18065.5664062,-93624.453125,38.9182815552,-0.012457041422,-0.0109234714621,0.45499935502,0.890337625186
1570512686865038281,6428,1570512686782441000,/map,-18065.3691406,-93624.2890625,38.9156455994,-0.0119477073699,-0.010861471251,0.446398460116,0.894688602552
1570512686951322335,6429,1570512686882590000,/map,-18065.2207031,-93624.0859375,38.8968238831,-0.0119150859775,-0.0109382778418,0.438166551487,0.898748272856
1570512687051225687,6430,1570512686982949000,/map,-18065.0625,-93623.859375,38.8906669617,-0.01091237743,-0.0113149440724,0.430271405762,0.902562690035
1570512687166669149,6431,1570512687083083000,/map,-18064.890625,-93623.6328125,38.8999862671,-0.0106575946118,-0.0112538067916,0.42227510646,0.90633520398
1570512687243051096,6432,1570512687183337000,/map,-18064.7421875,-93623.4296875,38.9022750854,-0.0111360089573,-0.0108502600532,0.413357597189,0.910436026312
1570512687356082547,6433,1570512687283580000,/map,-18064.578125,-93623.21875,38.9111404419,-0.0125291813227,-0.0100971832272,0.403802487418,0.914704661441
1570512687457526944,6434,1570512687383749000,/map,-18064.3515625,-93623.015625,38.9187660217,-0.0133443521329,-0.00991755920542,0.39386924665,0.919016097154
1570512687560660310,6435,1570512687484100000,/map,-18064.1054688,-93622.8203125,38.9187507629,-0.0146657981382,-0.00841257398708,0.383731852441,0.923289774874
1570512687680167475,6436,1570512687584221000,/map,-18063.8203125,-93622.5546875,38.9187431335,-0.0145257727045,-0.00765850016474,0.371863819297,0.9281420415
1570512687766689599,6437,1570512687686446000,/map,-18063.5761719,-93622.2890625,38.9333267212,-0.0141562368003,-0.00634094311419,0.359097618279,0.933171095752
1570512687872885113,6438,1570512687784718000,/map,-18063.3945312,-93622.078125,38.9450950623,-0.014919202138,-0.00598599592944,0.346042312533,0.93808118156
1570512687964261978,6439,1570512687886807000,/map,-18063.1582031,-93621.859375,38.9745063782,-0.0162127632665,-0.00592607947137,0.331581385163,0.943268685425
1570512688115963419,6440,1570512687987056000,/map,-18062.8203125,-93621.6484375,38.9643859863,-0.0176925061319,-0.00715500107956,0.317208988117,0.948163614069
1570512688159540478,6441,1570512688087200000,/map,-18062.5058594,-93621.453125,38.9250335693,-0.0174420001037,-0.00733395633597,0.301794477487,0.953185230202
1570512688260053155,6442,1570512688187553000,/map,-18062.25,-93621.265625,38.8865280151,-0.0140063075907,-0.00421970669582,0.285641319479,0.958224949596
1570512688406096727,6443,1570512688297357000,/map,-18061.8808594,-93621.046875,38.9003715515,-0.00730242077809,-0.00325163526321,0.266677698028,0.963752617062
1570512688461218734,6444,1570512688387859000,/map,-18061.5644531,-93620.890625,38.9263839722,-0.00394478648612,-0.00639014389979,0.248966171427,0.968483066556
1570512688572012523,6445,1570512688488209000,/map,-18061.1757812,-93620.6484375,39.0019035339,-0.00291521274822,-0.0145545815391,0.227602460247,0.973640994299
1570512688669522378,6446,1570512688588337000,/map,-18060.7832031,-93620.3828125,38.9888648987,-0.0055914237758,-0.0201304659438,0.205789358117,0.978373262312
1570512688805931854,6447,1570512688688585000,/map,-18060.4023438,-93620.2265625,38.9328613281,-0.00870305526331,-0.0231583029079,0.185752493965,0.982285071057
1570512688852734560,6448,1570512688788836000,/map,-18060.0390625,-93620.09375,38.8860816956,-0.00885042010523,-0.0216081457773,0.165110341213,0.98599864773
1570512688999995102,6449,1570512688888978000,/map,-18059.5585938,-93619.921875,38.8866996765,-0.00278282752402,-0.0190164684075,0.144789512743,0.989275809267
1570512689063796772,6450,1570512688989334000,/map,-18059.0800781,-93619.7109375,38.9101905823,0.00691088337026,-0.0188245512329,0.124699582117,0.991991880099
1570512689163737761,6451,1570512689089476000,/map,-18058.6386719,-93619.546875,38.9588165283,0.0128868378465,-0.0189699786761,0.104763736897,0.994232683405
1570512689280567788,6452,1570512689189733000,/map,-18058.2324219,-93619.515625,38.9814453125,0.0128574503362,-0.0193112879899,0.0852316351251,0.996091024205
1570512689382289117,6453,1570512689289968000,/map,-18057.8417969,-93619.4765625,39.0241775513,0.00864151487156,-0.0183634425263,0.0659347556706,0.997617519991
1570512689475365311,6454,1570512689390114000,/map,-18057.4746094,-93619.4140625,39.0282554626,0.00386798946814,-0.0175071205546,0.0469186480481,0.998737793344
1570512689641777620,6455,1570512689490464000,/map,-18056.9277344,-93619.3203125,39.0262908936,0.00118432600541,-0.0169245937292,0.0260859501967,0.999515722088
1570512689717877418,6456,1570512689591002000,/map,-18056.3320312,-93619.3203125,39.0335426331,0.00142319033913,-0.0164121463635,0.00599425312727,0.999846330648
1570512689794211253,6457,1570512689690761000,/map,-18055.8847656,-93619.296875,39.0284576416,0.000484613025956,-0.0155273156262,-0.0108870639494,0.999820053539
1570512689854362905,6458,1570512689791107000,/map,-18055.4296875,-93619.28125,39.0518722534,-0.000650476671481,-0.0138921493872,-0.0276937473011,0.999519705371
1570512689969988568,6459,1570512689891252000,/map,-18054.90625,-93619.265625,39.0476608276,-0.00309702068268,-0.011773428926,-0.0450449310349,0.998910781312
1570512690058435387,6460,1570512689991738000,/map,-18054.4296875,-93619.28125,39.0628585815,-0.00546057533665,-0.0100561316093,-0.0616586632587,0.998031695679
1570512690162186565,6461,1570512690091750000,/map,-18053.9414062,-93619.3046875,39.1134757996,-0.0065083515421,-0.0098545519085,-0.0775041909145,0.996922077977
1570512690280991529,6462,1570512690191891000,/map,-18053.390625,-93619.3984375,39.1093902588,-0.0101718990245,-0.0105189356601,-0.091888171327,0.995661814289
1570512690363906022,6463,1570512690293728000,/map,-18052.8203125,-93619.484375,39.1140556335,-0.012166105866,-0.0107262190187,-0.10581352039,0.994253706554
1570512690455483237,6464,1570512690392387000,/map,-18052.2597656,-93619.5390625,39.0951347351,-0.0136011222777,-0.00942481193786,-0.117932145035,0.992883775454
1570512690570325333,6465,1570512690492534000,/map,-18051.6914062,-93619.6328125,39.071723938,-0.0142614968301,-0.00677753125102,-0.127985030329,0.991650395447
1570512690685517394,6466,1570512690592885000,/map,-18051.1972656,-93619.75,39.0951461792,-0.0141373246195,-0.00418236239063,-0.136536667459,0.990525306258
1570512690764571513,6467,1570512690693032000,/map,-18050.6542969,-93619.84375,39.1477928162,-0.0138022176816,-0.0024042031588,-0.145823930968,0.989211352417
1570512690890566614,6468,1570512690793281000,/map,-18050.0371094,-93620.0078125,39.1684494019,-0.0148130379481,-0.00151799686613,-0.154663413241,0.987854998569
1570512690971065078,6469,1570512690893547000,/map,-18049.4863281,-93620.1640625,39.1794700623,-0.0155451727743,-0.00200090320269,-0.163002047221,0.986501229899
1570512691060756093,6470,1570512690998178000,/map,-18048.9199219,-93620.34375,39.1815643311,-0.0155061799345,-0.00210986161924,-0.171726010553,0.985020448604
1570512691163151759,6471,1570512691098529000,/map,-18048.3710938,-93620.515625,39.186164856,-0.0149372518772,-0.00211799249259,-0.179672446413,0.983610799358
1570512691269468837,6472,1570512691198675000,/map,-18047.8261719,-93620.7109375,39.1846885681,-0.0144448769697,-0.00178999115491,-0.187059899051,0.98224067093
1570512691377017550,6473,1570512691301889000,/map,-18047.2226562,-93620.8828125,39.1919288635,-0.0121358311229,-0.00206515362641,-0.193783407576,0.98096709817
1570512691468090386,6474,1570512691402048000,/map,-18046.6601562,-93621.0625,39.2118759155,-0.0122797843745,-0.00195302604021,-0.199722127337,0.979773680212
1570512691583137207,6475,1570512691502288000,/map,-18046.125,-93621.2890625,39.211517334,-0.0138078440587,-0.00232666589597,-0.20518169421,0.978623728728
1570512691672513056,6476,1570512691602530000,/map,-18045.6328125,-93621.5078125,39.2098731995,-0.0147700765906,-0.00333536798091,-0.210427005413,0.977492299484
1570512691789856042,6477,1570512691705311000,/map,-18045.1953125,-93621.671875,39.2103271484,-0.0149141360257,-0.00406758028507,-0.215312385649,0.976422859177
1570512691875147247,6478,1570512691803027000,/map,-18044.7382812,-93621.84375,39.2258224487,-0.0134149091351,-0.00410557319284,-0.220582083058,0.975267516692
1570512691963608499,6479,1570512691903171000,/map,-18044.3359375,-93622.0859375,39.2398033142,-0.0137767397937,-0.00332553485241,-0.225443194982,0.974153226189
1570512692067259508,6480,1570512692003318000,/map,-18043.9023438,-93622.296875,39.2395553589,-0.0150373503259,-0.0026985414113,-0.230473590254,0.972958642577
1570512692172029497,6481,1570512692103667000,/map,-18043.4570312,-93622.5,39.2545394897,-0.0152952453163,-0.00233956016486,-0.235716786604,0.971698604734
1570512692258828960,6482,1570512692203813000,/map,-18042.9863281,-93622.71875,39.261390686,-0.0154648635362,-0.00223369726246,-0.241252743817,0.970336520076
1570512692378444003,6483,1570512692304059000,/map,-18042.6035156,-93622.8984375,39.2557182312,-0.0154816043444,-0.00268687595264,-0.247478276384,0.968766020947
1570512692458507249,6484,1570512692404310000,/map,-18042.234375,-93623.0703125,39.2578430176,-0.0153482933274,-0.00300393572506,-0.253351104867,0.967247964032
1570512692569985671,6485,1570512692504452000,/map,-18041.8554688,-93623.28125,39.277431488,-0.0141607373564,-0.00376310033941,-0.259422977655,0.96565264524
1570512692682231069,6486,1570512692604827000,/map,-18041.4511719,-93623.515625,39.2851448059,-0.0139110257777,-0.00454837889703,-0.265314013624,0.964050968459
1570512692760102383,6487,1570512692704950000,/map,-18041.0527344,-93623.7421875,39.2967567444,-0.0149460948266,-0.00443033328512,-0.27126602584,0.962378163521
1570512692866211723,6488,1570512692805202000,/map,-18040.6738281,-93623.9921875,39.3035736084,-0.015025141348,-0.00484457626952,-0.27649212357,0.960886507769
1570512692979889954,6489,1570512692905443000,/map,-18040.3242188,-93624.203125,39.3065948486,-0.0155921899041,-0.00430756061956,-0.280844707344,0.959616891729
1570512693060966032,6490,1570512693005592000,/map,-18039.96875,-93624.359375,39.3228912354,-0.0133646045695,-0.00509114794224,-0.284944433586,0.958437341367
1570512693169796057,6491,1570512693105844000,/map,-18039.5957031,-93624.578125,39.3346328735,-0.0122994079695,-0.00567699233875,-0.289249056378,0.957158022328
1570512693271184179,6492,1570512693206097000,/map,-18039.3066406,-93624.8125,39.3263435364,-0.0140611160233,-0.00564012028609,-0.292461857893,0.956157171043
1570512693369121502,6493,1570512693307138000,/map,-18039.0078125,-93625.0546875,39.3212203979,-0.0148417679612,-0.00530389481628,-0.295584548094,0.9551865606
1570512693469852776,6494,1570512693406582000,/map,-18038.6914062,-93625.28125,39.3344726562,-0.0140183096162,-0.00543834285698,-0.298146719369,0.954401616277
1570512693568339872,6495,1570512693506725000,/map,-18038.3925781,-93625.46875,39.3442001343,-0.0139637194243,-0.0056724346294,-0.300589947901,0.953634375034
1570512693677649220,6496,1570512693606898000,/map,-18038.1230469,-93625.6796875,39.3207931519,-0.0143755687699,-0.00663654265799,-0.302785076318,0.952927330327
1570512693757763356,6497,1570512693708957000,/map,-18037.8496094,-93625.8984375,39.3415718079,-0.0152413280485,-0.00715665145724,-0.304802920341,0.95226659293
1570512693876385879,6498,1570512693808365000,/map,-18037.546875,-93626.09375,39.3533096313,-0.0151988817648,-0.00729916623069,-0.306902198655,0.951591696384
1570512693972251150,6499,1570512693907722000,/map,-18037.2304688,-93626.296875,39.3720359802,-0.0138870049709,-0.00740320614885,-0.309231148618,0.950856687601
1570512694074632207,6500,1570512694007863000,/map,-18036.9433594,-93626.5,39.3872680664,-0.0135433575806,-0.0077249487872,-0.311197407426,0.950217383677
1570512694167347141,6501,1570512694112496000,/map,-18036.6464844,-93626.7109375,39.3982887268,-0.0130462838909,-0.00804329596902,-0.312827678946,0.949686234054
1570512694273950826,6502,1570512694208362000,/map,-18036.3828125,-93626.9140625,39.4181251526,-0.0115890328187,-0.00854594289572,-0.314256585887,0.949228876196
1570512694368466105,6503,1570512694308506000,/map,-18036.1171875,-93627.1328125,39.4209785461,-0.0107499935687,-0.00873377138493,-0.31507984526,0.948964093097
1570512694464399867,6504,1570512694408753000,/map,-18035.8691406,-93627.3515625,39.4098625183,-0.0110154431732,-0.00852935488243,-0.315208577525,0.948920156163
1570512694579023614,6505,1570512694509002000,/map,-18035.5859375,-93627.53125,39.4291229248,-0.00956980176881,-0.00938435583146,-0.314358928642,0.949209574721
1570512694697139554,6506,1570512694609154000,/map,-18035.2402344,-93627.75,39.4421615601,-0.00802852809315,-0.0107725756432,-0.312862296781,0.949703468249
1570512694780014144,6507,1570512694709500000,/map,-18034.921875,-93628.0078125,39.4446678162,-0.00836527243882,-0.0120097792062,-0.310877761837,0.950337205741
1570512694898549476,6508,1570512694814439000,/map,-18034.6152344,-93628.2421875,39.4625778198,-0.00912656533233,-0.0123998744439,-0.308827178024,0.950993545211
1570512694978997350,6509,1570512694909790000,/map,-18034.3242188,-93628.453125,39.4793281555,-0.00927407857649,-0.011930200355,-0.306856700103,0.951635764034
1570512695072603505,6510,1570512695010144000,/map,-18034.015625,-93628.6796875,39.4850387573,-0.00963471882413,-0.0115348509142,-0.304490351765,0.95239684223
1570512695187816638,6511,1570512695110282000,/map,-18033.6679688,-93628.8828125,39.4863243103,-0.00866040295981,-0.0117165847207,-0.302613206071,0.953002081097
1570512695282912009,6512,1570512695210534000,/map,-18033.3535156,-93629.1328125,39.4916687012,-0.00800507184148,-0.0122645243813,-0.299983002004,0.953832112468
1570512695370193951,6513,1570512695310902000,/map,-18033.0292969,-93629.3828125,39.4949569702,-0.00704434693126,-0.0134092193699,-0.296919453483,0.954782387854
1570512695470966399,6514,1570512695410922000,/map,-18032.6777344,-93629.6171875,39.5116539001,-0.00654160528497,-0.014443898759,-0.293055248836,0.955964017272
1570512695596168994,6515,1570512695511272000,/map,-18032.2851562,-93629.8984375,39.5200004578,-0.00884978458769,-0.015112220555,-0.288893123665,0.957201162349
1570512695677376336,6516,1570512695619830000,/map,-18031.8457031,-93630.203125,39.5187950134,-0.00990261648771,-0.0155525593509,-0.285451365078,0.958215828642
1570512695766457122,6517,1570512695711668000,/map,-18031.4707031,-93630.4296875,39.5225830078,-0.0105727978697,-0.0166719133488,-0.282042285129,0.959198838954
1570512695880519929,6518,1570512695816163000,/map,-18031.0644531,-93630.65625,39.5542602539,-0.0108121182814,-0.0171127395725,-0.278834626932,0.960125774608
1570512695989580507,6519,1570512695912063000,/map,-18030.6757812,-93630.90625,39.5548629761,-0.0136515187568,-0.0165061506228,-0.27614781408,0.960876458139
1570512696099748046,6520,1570512696012413000,/map,-18030.1816406,-93631.1875,39.5789413452,-0.0153924970297,-0.0168679141317,-0.273914309523,0.961482966852
1570512696211768835,6521,1570512696124373000,/map,-18029.6796875,-93631.4765625,39.6119842529,-0.0152857859133,-0.0170832446925,-0.272507368236,0.961880575621
1570512696291228856,6522,1570512696212702000,/map,-18029.2304688,-93631.765625,39.6306762695,-0.0134023304743,-0.0163498239247,-0.271170037517,0.962299262989
1570512696374491228,6523,1570512696313053000,/map,-18028.7246094,-93632.0546875,39.6329727173,-0.00939350441984,-0.015470465304,-0.270026984862,0.962682634218
1570512696498508474,6524,1570512696413195000,/map,-18028.1601562,-93632.3125,39.6711082458,-0.00195482670701,-0.014631982853,-0.270260641784,0.962674020234
1570512696585579523,6525,1570512696513443000,/map,-18027.6816406,-93632.625,39.6489295959,-0.00262511316106,-0.0126641630482,-0.270156401577,0.962729581161
1570512696676814111,6526,1570512696613695000,/map,-18027.2050781,-93632.9296875,39.6608314514,-0.00395271862386,-0.0115095072821,-0.269051395652,0.963048936324
1570512696783582988,6527,1570512696713840000,/map,-18026.6582031,-93633.2109375,39.7093238831,-0.00269750157287,-0.0123255283092,-0.267999188706,0.963336514251
1570512696876855225,6528,1570512696814188000,/map,-18026.1035156,-93633.53125,39.7274932861,-0.00199109082252,-0.01380607045,-0.266672771908,0.963686183723
1570512696985431328,6529,1570512696914337000,/map,-18025.5507812,-93633.8671875,39.740562439,-0.00115171485629,-0.0151582743003,-0.26533698693,0.964035882963
1570512697079108757,6530,1570512697014585000,/map,-18025.0078125,-93634.1875,39.7312469482,-0.00116989265565,-0.0154665550773,-0.264280559213,0.964321109925
1570512697167125529,6531,1570512697116046000,/map,-18024.4726562,-93634.515625,39.7357406616,-0.00309492700366,-0.0144771495333,-0.263711685557,0.964487936922
1570512697283512293,6532,1570512697214973000,/map,-18023.9492188,-93634.84375,39.7570228577,-0.00613950361647,-0.0130610122654,-0.263498317914,0.964551892285
1570512697381965073,6533,1570512697315228000,/map,-18023.4179688,-93635.140625,39.776473999,-0.00687222414306,-0.0120350842928,-0.263675098994,0.964511986163
1570512697466963550,6534,1570512697415473000,/map,-18022.8808594,-93635.4375,39.8011703491,-0.0065117641289,-0.0114157891097,-0.263994443816,0.964434658399
1570512697585674409,6535,1570512697516094000,/map,-18022.3574219,-93635.765625,39.8085212708,-0.00708861696617,-0.0106291907217,-0.264685517467,0.964250148383
1570512697677249083,6536,1570512697615996000,/map,-18021.8457031,-93636.078125,39.8271942139,-0.00719609458363,-0.0105995813555,-0.265519485096,0.964020367073
1570512697779752419,6537,1570512697716117000,/map,-18021.2988281,-93636.34375,39.8405456543,-0.0066735308611,-0.010894456736,-0.266283922634,0.963809964332
1570512697901105383,6538,1570512697816360000,/map,-18020.84375,-93636.65625,39.8471603394,-0.00843149747918,-0.00997336803578,-0.266926652833,0.963628353561
1570512698027035271,6539,1570512697916610000,/map,-18020.2441406,-93637.03125,39.8615341187,-0.00991061719435,-0.00918684672382,-0.267604173773,0.963434163653
1570512698084355504,6540,1570512698016751000,/map,-18019.6152344,-93637.3515625,39.9157066345,-0.00842011034632,-0.00976496318523,-0.268552416005,0.963178772136
1570512698258141729,6541,1570512698117103000,/map,-18019.21875,-93637.6015625,39.9287071228,-0.00802835672172,-0.0101834616979,-0.269662579444,0.962867558828
1570512698362564427,6542,1570512698217250000,/map,-18018.5703125,-93638.03125,39.9228897095,-0.00989388976662,-0.0103835374145,-0.270853950532,0.962513600204
1570512698419404863,6543,1570512698317398000,/map,-18018.0898438,-93638.296875,39.9388275146,-0.00850078303173,-0.0102181307175,-0.272740650752,0.961995771259
1570512698487879748,6544,1570512698417744000,/map,-18017.6425781,-93638.578125,39.9530334473,-0.006776577416,-0.00985122719391,-0.274303182425,0.961568923912
1570512698570887933,6545,1570512698517911000,/map,-18017.1875,-93638.84375,39.9752044678,-0.0065297677623,-0.00932845413113,-0.276016552966,0.96108543042
1570512698721209160,6546,1570512698619714000,/map,-18016.6425781,-93639.1953125,39.9922523499,-0.00642913099019,-0.00904330354052,-0.277944439711,0.960533067296
1570512698783842074,6547,1570512698718386000,/map,-18016.1230469,-93639.515625,40.0220527649,-0.00534257435637,-0.00943341431861,-0.279574743873,0.960062722004
1570512698877231789,6548,1570512698818535000,/map,-18015.59375,-93639.828125,40.0146331787,-0.00457358875596,-0.00957867839151,-0.281367936984,0.959541252497
1570512698974064932,6549,1570512698918894000,/map,-18015.0566406,-93640.15625,40.0130882263,-0.00514839405172,-0.00920710147277,-0.283187435207,0.959006569248
1570512699080499513,6550,1570512699019028000,/map,-18014.5449219,-93640.4609375,40.0409698486,-0.00360638009592,-0.00939481982417,-0.284797099036,0.958534998716
1570512699215633500,6551,1570512699119175000,/map,-18014.2441406,-93640.6796875,40.0444030762,-0.00227585993985,-0.00895422095602,-0.285533106676,0.958324312214
1570512699315453376,6552,1570512699219522000,/map,-18013.8515625,-93640.9296875,40.0686073303,-0.00214013859212,-0.00801889622348,-0.286368582463,0.958083583039
1570512699439209451,6553,1570512699319683000,/map,-18013.3261719,-93641.2890625,40.0821418762,-0.00228521920578,-0.00866233105843,-0.287195801223,0.957830002429
1570512699496312306,6554,1570512699428733000,/map,-18012.7519531,-93641.671875,40.1067276001,-0.00200756123974,-0.00931855145191,-0.288184887964,0.95752733885
1570512699653827265,6555,1570512699520162000,/map,-18012.3710938,-93641.875,40.1307182312,0.00056311915324,-0.0107332897394,-0.289349606495,0.957163144197
1570512699725480985,6556,1570512699620328000,/map,-18011.8574219,-93642.203125,40.1302947998,-0.00117545125963,-0.0117533008771,-0.290323095132,0.956855777359
1570512699779977075,6557,1570512699720662000,/map,-18011.3613281,-93642.5390625,40.1295623779,-0.00185874226371,-0.0127210120448,-0.291520471766,0.956478193934
1570512699882043481,6558,1570512699820803000,/map,-18010.9042969,-93642.828125,40.1270446777,-0.00214358079821,-0.0134508420498,-0.292388267191,0.956202688304
1570512699984587739,6559,1570512699921052000,/map,-18010.4589844,-93643.1015625,40.1259078979,-0.00266032423803,-0.0130533015846,-0.293354642602,0.95591086805
1570512700083095053,6560,1570512700021303000,/map,-18010.0136719,-93643.40625,40.1435585022,-0.000870676188552,-0.0131133118296,-0.293936636054,0.955734553608
1570512700180900995,6561,1570512700121449000,/map,-18009.5722656,-93643.7265625,40.1452636719,-0.00115151636108,-0.012936720589,-0.295127315919,0.955369657603
1570512700289230107,6562,1570512700224890000,/map,-18009.1328125,-93643.9921875,40.1941413879,0.00137997373235,-0.0130903001089,-0.296159213905,0.955047883477
1570512700393619336,6563,1570512700321966000,/map,-18008.7695312,-93644.25,40.2052650452,0.000408909107685,-0.0128910366655,-0.29689606199,0.954822696809
1570512700489012750,6564,1570512700423828000,/map,-18008.3710938,-93644.5078125,40.2159614563,-0.000628622426879,-0.0134936111507,-0.297811764186,0.954529035915
1570512700606300794,6565,1570512700522440000,/map,-18007.9160156,-93644.8515625,40.2282943726,-0.00273817926185,-0.0156638181886,-0.298617187928,0.954240494974
1570512700692278967,6566,1570512700622584000,/map,-18007.4492188,-93645.1484375,40.2389907837,-0.000995053140333,-0.0180335688932,-0.299499204213,0.953925587736
1570512700782784565,6567,1570512700722832000,/map,-18006.9863281,-93645.46875,40.2330856323,-0.00165968088037,-0.0186914617396,-0.300427079404,0.953620178414
1570512700892533486,6568,1570512700823101000,/map,-18006.5195312,-93645.796875,40.2449645996,-0.00119722538952,-0.0193773612963,-0.301606489711,0.953234813614
1570512701000484407,6569,1570512700923228000,/map,-18006.0644531,-93646.125,40.2521896362,-0.000712203168391,-0.0199689178167,-0.302630021051,0.952898633353
1570512701082334966,6570,1570512701023573000,/map,-18005.5878906,-93646.453125,40.2593002319,0.000575684678815,-0.0203789958687,-0.303453159874,0.952628230149
1570512701187297944,6571,1570512701128538000,/map,-18005.0800781,-93646.7890625,40.2916297913,0.0017898796459,-0.0205703302849,-0.304487824653,0.952292403877
1570512701338351147,6572,1570512701223970000,/map,-18004.4765625,-93647.171875,40.3106422424,0.00233899407004,-0.0212530510697,-0.305907547973,0.951821101374
1570512701404357118,6573,1570512701324214000,/map,-18003.9179688,-93647.546875,40.3436737061,0.00208398864957,-0.0219315464402,-0.307188857366,0.951393541166
1570512701493594382,6574,1570512701424363000,/map,-18003.3808594,-93647.921875,40.3549156189,0.00293279340563,-0.0220371575151,-0.307448785189,0.951304896917
1570512701603000200,6575,1570512701524633000,/map,-18002.8359375,-93648.3125,40.3687210083,0.00291977249968,-0.0213800795837,-0.307557684404,0.951284730188
1570512701692281686,6576,1570512701625241000,/map,-18002.3125,-93648.7109375,40.3934516907,0.00286866403971,-0.0200789722485,-0.307531715855,0.951321632984
1570512701786271980,6577,1570512701725032000,/map,-18001.7773438,-93649.09375,40.4141998291,0.00168519961869,-0.0184667339974,-0.307831865924,0.951260049702
1570512701875127502,6578,1570512701825354000,/map,-18001.21875,-93649.46875,40.4287223816,0.00191989395896,-0.0184458971482,-0.307980617569,0.951211859728
1570512701993530213,6579,1570512701925500000,/map,-18000.6835938,-93649.859375,40.4484901428,6.24666291555e-05,-0.0183811710019,-0.308019367736,0.951202500917
1570512702105447677,6580,1570512702025750000,/map,-18000.0976562,-93650.28125,40.4656829834,-0.00127821760562,-0.0183804988349,-0.308419470408,0.951072002372
1570512702183573987,6581,1570512702125991000,/map,-17999.4824219,-93650.703125,40.4894714355,-0.00239560615477,-0.0178130586787,-0.308873274033,0.950933360757
1570512702303491693,6582,1570512702226138000,/map,-17998.9355469,-93651.1015625,40.518196106,-0.00211235054322,-0.016692897849,-0.309256836857,0.950829687165
1570512702398085829,6583,1570512702326489000,/map,-17998.3339844,-93651.515625,40.5282096863,-0.0011262925058,-0.0166572654579,-0.309643674786,0.950706085832
1570512702480431164,6584,1570512702426632000,/map,-17997.7226562,-93651.953125,40.5498428345,-0.00132324613534,-0.0161452145158,-0.310218731907,0.950527179749
1570512702606428544,6585,1570512702526793000,/map,-17997.1523438,-93652.3671875,40.5535011292,-0.00303183146718,-0.0160626850611,-0.310940470533,0.950288809748
1570512702692595288,6586,1570512702627161000,/map,-17996.5136719,-93652.8046875,40.5903778076,-0.000181298340919,-0.0178893924757,-0.311346831508,0.950127932059
1570512702808848748,6587,1570512702739931000,/map,-17995.9277344,-93653.2421875,40.6067504883,0.000621706240914,-0.0181037479713,-0.31193681133,0.949930151921
1570512702938246249,6588,1570512702827513000,/map,-17995.3652344,-93653.640625,40.631313324,0.00211720923287,-0.0176786971464,-0.312660574524,0.94969802897
1570512702993395996,6589,1570512702932438000,/map,-17994.6972656,-93654.109375,40.6660690308,0.00391435061768,-0.0179658141009,-0.313175874332,0.94951712945
1570512703111490834,6590,1570512703029544000,/map,-17994.140625,-93654.5234375,40.6735992432,0.00339212215343,-0.0181687758455,-0.313521139407,0.949401329384
1570512703185731926,6591,1570512703129693000,/map,-17993.5585938,-93654.953125,40.6864318848,0.00145313102864,-0.018120185299,-0.313357801988,0.949461128866
1570512703308452323,6592,1570512703230039000,/map,-17992.9550781,-93655.390625,40.745174408,0.00337499831843,-0.0188626681363,-0.312679372777,0.949665424756
1570512703408119955,6593,1570512703330186000,/map,-17992.453125,-93655.7734375,40.7517852783,0.00315404053472,-0.0184787616178,-0.31214319519,0.949850100328
1570512703501335456,6594,1570512703433807000,/map,-17991.8183594,-93656.21875,40.7767791748,0.00284847284773,-0.0187084842452,-0.311508146415,0.950055026584
1570512703595950957,6595,1570512703530684000,/map,-17991.2480469,-93656.6171875,40.7925300598,0.000288546381843,-0.019391444436,-0.311726992778,0.949973773636
1570512703706401310,6596,1570512703630854000,/map,-17990.7773438,-93656.9765625,40.8209571838,-0.00216783862954,-0.0200029341761,-0.311126172608,0.950155612423
1570512703823700195,6597,1570512703731083000,/map,-17990.1484375,-93657.4296875,40.8598861694,-0.000889919169867,-0.021038850385,-0.311169610559,0.950121070329
1570512703900683180,6598,1570512703831321000,/map,-17989.6015625,-93657.8203125,40.8855857849,-0.00166035226871,-0.0209075135876,-0.311017650304,0.950172689728
1570512704014042247,6599,1570512703931474000,/map,-17989.109375,-93658.171875,40.9217681885,-0.00113675310749,-0.0203249359359,-0.310994050663,0.950193825082
1570512704123485463,6600,1570512704031818000,/map,-17988.5429688,-93658.5859375,40.948009491,-0.000954270773875,-0.0203840649718,-0.311070272094,0.950167808906
1570512704184243748,6601,1570512704131968000,/map,-17988.0,-93658.9921875,40.9566726685,-0.000689728717866,-0.0205209393181,-0.310911200581,0.950217154485
1570512704303415349,6602,1570512704232217000,/map,-17987.546875,-93659.3125,40.976726532,-0.000178619215464,-0.0209315511701,-0.310809857244,0.950241585546
1570512704414029294,6603,1570512704332463000,/map,-17986.9628906,-93659.734375,41.0160140991,-0.000762084186942,-0.0209646514329,-0.310472441635,0.950350864472
1570512704503372139,6604,1570512704432616000,/map,-17986.4414062,-93660.125,41.0313262939,-0.00113071691091,-0.0208150571513,-0.310430491107,0.950367489483
1570512704606063483,6605,1570512704532958000,/map,-17985.9589844,-93660.4609375,41.0742034912,0.00017305499878,-0.0211335898588,-0.310130750531,0.950458972816
1570512704716849006,6606,1570512704633106000,/map,-17985.40625,-93660.859375,41.1019935608,0.000902875069787,-0.0208982262235,-0.310130193648,0.950463945632
1570512704803879661,6607,1570512704733251000,/map,-17984.9238281,-93661.21875,41.1241111755,0.0018455104319,-0.0205053859052,-0.310126998052,0.950472181771
1570512704896919525,6608,1570512704835216000,/map,-17984.4492188,-93661.5546875,41.1363945007,0.00270190679776,-0.0205972016281,-0.310059539303,0.95049015622
1570512705001615879,6609,1570512704933747000,/map,-17983.9863281,-93661.875,41.1522979736,0.00403210585327,-0.0213365886919,-0.310004273851,0.950487160513
1570512705107755547,6610,1570512705033992000,/map,-17983.4726562,-93662.2265625,41.1921882629,0.00662945371776,-0.0224329934936,-0.309915744759,0.950476218691
1570512705200858620,6611,1570512705134237000,/map,-17983.0390625,-93662.59375,41.1992759705,0.00694041371102,-0.0223685158286,-0.310093649175,0.950417491894
1570512705301395139,6612,1570512705234411000,/map,-17982.546875,-93662.921875,41.2208747864,0.00657994639636,-0.0214549383358,-0.309879845506,0.950510847532
1570512705405007312,6613,1570512705335160000,/map,-17982.0488281,-93663.2421875,41.2367362976,0.00846598360733,-0.0222084107417,-0.310064391124,0.95041842731
1570512705517810787,6614,1570512705434880000,/map,-17981.6230469,-93663.5625,41.2789154053,0.011553793674,-0.0243183949015,-0.309688360302,0.950456861206
1570512705599315829,6615,1570512705535127000,/map,-17981.171875,-93663.9140625,41.2836837769,0.0106207633315,-0.0264219786526,-0.310168527295,0.95025499899
1570512705709691171,6616,1570512705635376000,/map,-17980.6855469,-93664.234375,41.3051605225,0.00984616338552,-0.0279834739491,-0.310518135304,0.950104449995
1570512705801134051,6617,1570512705735546000,/map,-17980.2148438,-93664.578125,41.3364219666,0.00778723525884,-0.0287377533545,-0.31146378738,0.949791455873
1570512705915230616,6618,1570512705837362000,/map,-17979.8242188,-93664.890625,41.3405418396,0.00518233254311,-0.0290527215928,-0.311888687995,0.949660217708
1570512706011866865,6619,1570512705944015000,/map,-17979.4101562,-93665.2109375,41.3381881714,0.0045261788564,-0.0280172145257,-0.3124699011,0.94950361258
1570512706120085624,6620,1570512706036171000,/map,-17978.9863281,-93665.46875,41.3557167053,0.00742254745317,-0.0273081083882,-0.313637284027,0.949121081355
1570512706208606472,6621,1570512706136511000,/map,-17978.5488281,-93665.8046875,41.4076805115,0.00927305471789,-0.0271209406873,-0.314254048267,0.948906137708
1570512706324706371,6622,1570512706236670000,/map,-17978.1484375,-93666.1484375,41.4614105225,0.00812585589928,-0.0277403654225,-0.314916708921,0.948679033728
1570512706409690189,6623,1570512706336929000,/map,-17977.6328125,-93666.4921875,41.4976768494,0.00478792123597,-0.0285913669027,-0.316060471137,0.948296044563
1570512706503004867,6624,1570512706437152000,/map,-17977.1328125,-93666.8671875,41.5439834595,0.00622838825964,-0.0307963791814,-0.31682458306,0.947963593066
1570512706654300206,6625,1570512706537298000,/map,-17976.71875,-93667.171875,41.5442466736,0.00426824796822,-0.0327962494313,-0.317124108661,0.947807199692
1570512706722841204,6626,1570512706637648000,/map,-17976.2265625,-93667.5234375,41.5543289185,0.00237750936725,-0.0334674757276,-0.316785625091,0.947903551662
1570512706803864800,6627,1570512706737800000,/map,-17975.71875,-93667.890625,41.5706787109,0.00292554853416,-0.0342553145316,-0.316354388326,0.948017887795
1570512706910903023,6628,1570512706837944000,/map,-17975.2480469,-93668.2265625,41.5936355591,0.00422730306264,-0.0342472831472,-0.31579283153,0.948200475142
1570512707001914198,6629,1570512706938302000,/map,-17974.78125,-93668.609375,41.6255073547,0.00232061261785,-0.0324257387652,-0.315214205418,0.948463594939
1570512707103089257,6630,1570512707038436000,/map,-17974.3085938,-93668.953125,41.6610603333,-0.000770611393337,-0.0305769520758,-0.314663282944,0.94871042712
1570512707209657595,6631,1570512707138696000,/map,-17973.8710938,-93669.2734375,41.692741394,-0.00588983494471,-0.0276405386747,-0.314352893243,0.948885435116
1570512707306435089,6632,1570512707239786000,/map,-17973.421875,-93669.6328125,41.7453727722,-0.0099967878072,-0.026597963462,-0.314008199991,0.948994975177
1570512707420576777,6633,1570512707339137000,/map,-17972.8867188,-93670.0,41.7796974182,-0.00977545395271,-0.028813813024,-0.314146151067,0.948886927114
1570512707509702625,6634,1570512707439424000,/map,-17972.3300781,-93670.421875,41.7845687866,-0.00824461487527,-0.0294697740986,-0.314414229743,0.948792522565
1570512707596041211,6635,1570512707539570000,/map,-17971.7890625,-93670.8359375,41.8041954041,-0.00895803638434,-0.028558834486,-0.314556423484,0.94876678009
1570512707724779609,6636,1570512707639720000,/map,-17971.2011719,-93671.2421875,41.8277702332,-0.00918027951287,-0.0262749349889,-0.314638154971,0.948803552742
1570512707833113664,6637,1570512707740074000,/map,-17970.6953125,-93671.609375,41.8928642273,-0.0103918530403,-0.023437262164,-0.314193348247,0.949012773386
1570512707906892409,6638,1570512707840213000,/map,-17970.21875,-93671.9609375,41.9388122559,-0.0122658659396,-0.0240722660348,-0.31308171054,0.949341833623
1570512708024913704,6639,1570512707940466000,/map,-17969.6152344,-93672.375,41.9696350098,-0.0122745776119,-0.0256023124366,-0.311768157454,0.949733895541
1570512708110897846,6640,1570512708040710000,/map,-17969.0410156,-93672.8125,41.9755325317,-0.0123212145047,-0.0255968669512,-0.311051779195,0.949968304069
1570512708243950814,6641,1570512708140855000,/map,-17968.5371094,-93673.2109375,41.9689788818,-0.0117136403112,-0.0246460153415,-0.310262656478,0.950259148103
1570512708312756786,6642,1570512708241204000,/map,-17967.9785156,-93673.578125,42.0403594971,-0.00933884646695,-0.0231335964012,-0.309887597153,0.950445842642
1570512708428403470,6643,1570512708341358000,/map,-17967.3808594,-93674.0234375,42.087097168,-0.0102433652361,-0.0216100902952,-0.309246765404,0.950681079833
1570512708511407338,6644,1570512708441605000,/map,-17966.8125,-93674.484375,42.1138000488,-0.0109892659389,-0.0213724941608,-0.309223119241,0.950685813008
1570512708634678394,6645,1570512708541846000,/map,-17966.1425781,-93674.9296875,42.1442718506,-0.0103854299111,-0.0214035785302,-0.310014964738,0.950433980511
1570512708703993147,6646,1570512708642013000,/map,-17965.4960938,-93675.390625,42.1727371216,-0.0103771818499,-0.0213998931791,-0.310825229604,0.950169477151
1570512708841155739,6647,1570512708742341000,/map,-17964.9433594,-93675.7890625,42.1821060181,-0.00997822881286,-0.0211106639146,-0.311312319228,0.950020744361
1570512708899103161,6648,1570512708844334000,/map,-17964.34375,-93676.1796875,42.2165679932,-0.00778200996532,-0.0205285428726,-0.311908201212,0.949858564874
1570512709009131029,6649,1570512708944714000,/map,-17963.7773438,-93676.6015625,42.2485961914,-0.00682001110676,-0.0196097933273,-0.312251236681,0.949772661559
1570512709107193023,6650,1570512709044825000,/map,-17963.2089844,-93677.0234375,42.2905006409,-0.0072706478312,-0.018901586085,-0.313154883965,0.949486116998
1570512709226224474,6651,1570512709144970000,/map,-17962.5644531,-93677.515625,42.3156776428,-0.00815100276065,-0.0163932594952,-0.313718102733,0.94933965166
1570512709338937144,6652,1570512709248915000,/map,-17961.9882812,-93677.8828125,42.347984314,-0.00954359043171,-0.0147490352169,-0.314594476078,0.949063591896
1570512709415874568,6653,1570512709345468000,/map,-17961.4941406,-93678.28125,42.403503418,-0.0109570294246,-0.0143500977878,-0.31513437709,0.948875304018
1570512709506728723,6654,1570512709445722000,/map,-17960.9785156,-93678.6796875,42.4404335022,-0.0109750930284,-0.0156658638014,-0.315377938577,0.948773357501
1570512709608299957,6655,1570512709545962000,/map,-17960.4375,-93679.078125,42.4527702332,-0.00993445649816,-0.0174812473517,-0.315747755547,0.948630100425
1570512709701107171,6656,1570512709646107000,/map,-17959.8710938,-93679.5078125,42.4708213806,-0.0116505342875,-0.0185723297157,-0.316565434307,0.948317277825
1570512709812816497,6657,1570512709746462000,/map,-17959.2675781,-93679.9453125,42.4819374084,-0.0119325546741,-0.0189389121187,-0.317338116045,0.948048232872
1570512709928605595,6658,1570512709846615000,/map,-17958.7285156,-93680.328125,42.5082893372,-0.0110882123199,-0.0190833654373,-0.317924668335,0.947859051745
1570512710015698500,6659,1570512709948836000,/map,-17958.1914062,-93680.71875,42.5423088074,-0.00922308026996,-0.0202166547849,-0.318633602367,0.947617459264
1570512710105787864,6660,1570512710047097000,/map,-17957.6835938,-93681.1171875,42.559299469,-0.00866769670748,-0.0202248715161,-0.319407016725,0.947362118344
1570512710210623190,6661,1570512710147243000,/map,-17957.1308594,-93681.4921875,42.5782852173,-0.00682461212263,-0.0205673322672,-0.31955057603,0.947321402097
1570512710329888509,6662,1570512710247606000,/map,-17956.6152344,-93681.890625,42.607208252,-0.00705089926559,-0.0205316950708,-0.319751035503,0.94725287522
1570512710399609302,6663,1570512710347740000,/map,-17956.09375,-93682.296875,42.6392822266,-0.00617651852094,-0.020921076177,-0.319538002275,0.947322344449
1570512710522736813,6664,1570512710447886000,/map,-17955.5644531,-93682.6484375,42.6687507629,-0.00340522894137,-0.0217172820596,-0.318865694937,0.94754495021
1570512710610854226,6665,1570512710548242000,/map,-17955.0859375,-93683.015625,42.6945533752,-0.00438026274528,-0.0215467701435,-0.317970261258,0.947845695749
1570512710711192318,6666,1570512710648386000,/map,-17954.5898438,-93683.3984375,42.7471351624,-0.00715477558402,-0.0208721524467,-0.317672624371,0.947943704111
1570512710813038156,6667,1570512710748628000,/map,-17954.09375,-93683.765625,42.7626190186,-0.00768675895881,-0.0204015823374,-0.317306775384,0.948072307089
1570512710902239430,6668,1570512710848878000,/map,-17953.6152344,-93684.125,42.7939605713,-0.00847853406119,-0.019686508768,-0.316853175826,0.94823236646
1570512711019679263,6669,1570512710949131000,/map,-17953.1308594,-93684.46875,42.8293190002,-0.00880140796251,-0.0192989152032,-0.316545332435,0.948340202461
1570512711124554011,6670,1570512711049373000,/map,-17952.6601562,-93684.8125,42.8499145508,-0.0102994436972,-0.0179508623233,-0.316248793335,0.948450519909
1570512711204288945,6671,1570512711149756000,/map,-17952.1835938,-93685.171875,42.8842048645,-0.00980449174366,-0.0176761128598,-0.315947417601,0.948561361372
1570512711304401046,6672,1570512711249668000,/map,-17951.7148438,-93685.5234375,42.9173278809,-0.0120276408703,-0.0169755580806,-0.315655995016,0.948645591933
1570512711405742057,6673,1570512711350023000,/map,-17951.2519531,-93685.8671875,42.9226341248,-0.0110953631142,-0.0179191280713,-0.315612490709,0.948654074716
1570512711527101165,6674,1570512711450159000,/map,-17950.7714844,-93686.1875,42.930519104,-0.00884385086598,-0.019096577634,-0.315608451971,0.948656108434
1570512711605414767,6675,1570512711550408000,/map,-17950.3339844,-93686.53125,42.935256958,-0.0089792280797,-0.020302785073,-0.315908620845,0.94852986967
1570512711718233113,6676,1570512711653431000,/map,-17949.8535156,-93686.8515625,42.9774017334,-0.00934834456873,-0.0215414707109,-0.315579653614,0.948608483895
1570512711823810521,6677,1570512711750808000,/map,-17949.3964844,-93687.1796875,43.0093574524,-0.00997470647119,-0.0217062347342,-0.315558238088,0.948605472775
1570512711911769806,6678,1570512711851164000,/map,-17948.9335938,-93687.5390625,43.0254745483,-0.0101172804844,-0.0217394523872,-0.315444309675,0.948641093533
1570512712020774453,6679,1570512711952336000,/map,-17948.4707031,-93687.890625,43.0590934753,-0.0112354628094,-0.0212399117632,-0.31539656071,0.948655701514
1570512712109686432,6680,1570512712051544000,/map,-17947.9785156,-93688.2265625,43.0867233276,-0.0115946812898,-0.0209017619502,-0.31544322107,0.94864337556
1570512712223340305,6681,1570512712151791000,/map,-17947.5097656,-93688.578125,43.1078338623,-0.0134467495489,-0.0204690446864,-0.315861050233,0.948489325233
1570512712319559181,6682,1570512712251940000,/map,-17947.0292969,-93688.9375,43.1356315613,-0.0167864489978,-0.0194661502567,-0.316257649149,0.948325041048
1570512712412505623,6683,1570512712354907000,/map,-17946.5214844,-93689.3203125,43.1604919434,-0.0193239932898,-0.0186506993427,-0.316192011386,0.948315003906
1570512712524477955,6684,1570512712453975000,/map,-17946.0058594,-93689.703125,43.1985092163,-0.0210012817034,-0.0184831675474,-0.315779227915,0.948420158949
1570512712619487208,6685,1570512712554221000,/map,-17945.4863281,-93690.1015625,43.2147750854,-0.0236395543709,-0.0179512220349,-0.315948409146,0.948311935944
1570512712719039904,6686,1570512712654361000,/map,-17944.9472656,-93690.4921875,43.2484588623,-0.0238727053782,-0.0187152786092,-0.31650641704,0.948105226363
1570512712818154518,6687,1570512712754714000,/map,-17944.4140625,-93690.875,43.2874565125,-0.0241667829605,-0.019194640671,-0.317198629441,0.947856825608
1570512712933181061,6688,1570512712854856000,/map,-17943.8828125,-93691.2890625,43.3050460815,-0.0246763375183,-0.0188172504509,-0.317528153701,0.947740925074
1570512713005826365,6689,1570512712955101000,/map,-17943.3476562,-93691.703125,43.3044509888,-0.0250519295622,-0.0187231609977,-0.317482291504,0.947748299206
1570512713123502154,6690,1570512713060095000,/map,-17942.7675781,-93692.125,43.3262710571,-0.0235806628259,-0.0201894358493,-0.316977574207,0.947924868579
1570512713214440782,6691,1570512713155500000,/map,-17942.2421875,-93692.4921875,43.3655433655,-0.0229658254664,-0.0216486848101,-0.316194028973,0.948169415953
1570512713330517528,6692,1570512713255850000,/map,-17941.6445312,-93692.953125,43.3957328796,-0.0238942053171,-0.0234812789116,-0.316097498968,0.948135047153
1570512713431936688,6693,1570512713356023000,/map,-17941.046875,-93693.3671875,43.4566802979,-0.0241934631945,-0.0245356250246,-0.315540471248,0.948286291395
1570512713512964716,6694,1570512713456139000,/map,-17940.4609375,-93693.7890625,43.5233917236,-0.0252080552753,-0.0244332870063,-0.315368230944,0.948319802254
1570512713626759440,6695,1570512713556489000,/map,-17939.9296875,-93694.203125,43.5586051941,-0.0238855994605,-0.0238063758763,-0.315416139993,0.948354044246
1570512713728812431,6696,1570512713656636000,/map,-17939.3535156,-93694.609375,43.6150550842,-0.0223787136627,-0.0218553801721,-0.315680424497,0.948349832668
1570512713830293721,6697,1570512713762404000,/map,-17938.7519531,-93695.0703125,43.6658821106,-0.0206399418768,-0.0187507762499,-0.31607365056,0.948324759041
1570512713925859691,6698,1570512713857131000,/map,-17938.1972656,-93695.4921875,43.70337677,-0.0181333936308,-0.0155077074406,-0.316146469884,0.948410301834
1570512714021341920,6699,1570512713957284000,/map,-17937.5957031,-93695.9453125,43.7181777954,-0.0174773619436,-0.013367696275,-0.316544628135,0.948322384485
1570512714135512819,6700,1570512714057630000,/map,-17937.0,-93696.3828125,43.7335090637,-0.0163222359825,-0.0133058136939,-0.316600140932,0.948325308476
1570512714232618137,6701,1570512714157774000,/map,-17936.4042969,-93696.828125,43.750995636,-0.0142442984103,-0.0139023434485,-0.316747549669,0.948301014756
1570512714322349528,6702,1570512714258025000,/map,-17935.8203125,-93697.2578125,43.7706871033,-0.0127351011761,-0.0148821160196,-0.316525211634,0.948381848319
1570512714428968779,6703,1570512714358270000,/map,-17935.2246094,-93697.671875,43.7931518555,-0.012202033892,-0.015861414522,-0.31666976684,0.948324725328
1570512714523546165,6704,1570512714458415000,/map,-17934.6347656,-93698.1328125,43.8037605286,-0.0116277059462,-0.0182180413465,-0.316809545154,0.948242907447
1570512714645285940,6705,1570512714558661000,/map,-17934.109375,-93698.5,43.8263626099,-0.0131752549615,-0.0196343028491,-0.316481147631,0.948304059889
1570512714731124074,6706,1570512714659381000,/map,-17933.515625,-93698.9453125,43.8708534241,-0.0124872498895,-0.0203635904724,-0.316298053992,0.948359074304
1570512714817185453,6707,1570512714759056000,/map,-17932.9335938,-93699.3671875,43.9114837646,-0.0127118812298,-0.019914239888,-0.316134305329,0.948420229708
1570512714905895874,6708,1570512714859403000,/map,-17932.3613281,-93699.796875,43.9437599182,-0.0129078462384,-0.0188399674221,-0.316164144152,0.948429584674
1570512715022421246,6709,1570512714959547000,/map,-17931.796875,-93700.203125,43.9665756226,-0.0104184092972,-0.0185867927316,-0.316218235482,0.948447160064
1570512715122225487,6710,1570512715059799000,/map,-17931.3164062,-93700.5859375,43.9936485291,-0.00859418633965,-0.0187401083671,-0.316601902126,0.948334426176
1570512715225454272,6711,1570512715160072000,/map,-17930.7949219,-93700.9375,44.0209732056,-0.00886539868723,-0.0183245595062,-0.317301508714,0.948106200693
1570512715321786004,6712,1570512715260191000,/map,-17930.2753906,-93701.3203125,44.0464744568,-0.00926792859948,-0.0185397568186,-0.318249206058,0.947780473401
1570512715426513710,6713,1570512715361497000,/map,-17929.7617188,-93701.734375,44.0775032043,-0.00881130773669,-0.0188981774817,-0.318948731014,0.947542572515
1570512715531241870,6714,1570512715460708000,/map,-17929.2480469,-93702.140625,44.0870437622,-0.00906001194927,-0.0190595863382,-0.319433211365,0.947373776199
1570512715623134345,6715,1570512715560835000,/map,-17928.6953125,-93702.546875,44.1262626648,-0.00773407677351,-0.0195695480566,-0.320053466531,0.947165769761
1570512715737079369,6716,1570512715666092000,/map,-17928.21875,-93702.9296875,44.155216217,-0.0068697636678,-0.0195568700713,-0.320849364551,0.946903384959
1570512715815457762,6717,1570512715761352000,/map,-17927.78125,-93703.2421875,44.1804885864,-0.00704978455079,-0.0188819853389,-0.32148430741,0.946700380932
1570512715926242614,6718,1570512715861576000,/map,-17927.2832031,-93703.6171875,44.2094802856,-0.0075561840255,-0.0177913296166,-0.321895517439,0.94657786184
1570512716028077172,6719,1570512715961821000,/map,-17926.7636719,-93704.0234375,44.2363815308,-0.00832338424368,-0.0178624310229,-0.322236280768,0.946454137394
1570512716123158531,6720,1570512716061991000,/map,-17926.3105469,-93704.375,44.24949646,-0.0103509477314,-0.0186061464082,-0.322412845396,0.946359670696
1570512716228261225,6721,1570512716162326000,/map,-17925.8164062,-93704.734375,44.2707862854,-0.00947421574542,-0.0199936948729,-0.322642129065,0.946262409669
1570512716324302978,6722,1570512716262465000,/map,-17925.3398438,-93705.1015625,44.3013458252,-0.0101104812954,-0.0207590252906,-0.322706150042,0.946217512923
1570512716438111878,6723,1570512716362634000,/map,-17924.8886719,-93705.4296875,44.3302268982,-0.0110051736843,-0.0210865076934,-0.32310189393,0.946065225809
1570512716532915321,6724,1570512716462967000,/map,-17924.453125,-93705.765625,44.3514480591,-0.0131920122768,-0.0202234137149,-0.323181195646,0.946029016009
1570512716652420477,6725,1570512716563108000,/map,-17923.9023438,-93706.1875,44.4079208374,-0.0155333242688,-0.0200142260243,-0.323505974861,0.945886901708
1570512716749643566,6726,1570512716663359000,/map,-17923.3925781,-93706.546875,44.4334182739,-0.0178630558469,-0.021409067049,-0.323639736785,0.94576946655
1570512716830359652,6727,1570512716763606000,/map,-17922.921875,-93706.9140625,44.4614486694,-0.0188554783911,-0.0224115136176,-0.323891700914,0.94564071458
1570512716930737156,6728,1570512716866516000,/map,-17922.4355469,-93707.28125,44.4906005859,-0.0183653324961,-0.0237488367797,-0.323930319129,0.945604492197
1570512717035830129,6729,1570512716963997000,/map,-17921.9707031,-93707.640625,44.53175354,-0.0183723373281,-0.0238051607151,-0.324274627066,0.94548492203
1570512717124526962,6730,1570512717064349000,/map,-17921.4765625,-93708.015625,44.5672721863,-0.0201338815672,-0.022562120736,-0.324680966661,0.945340069715
1570512717226071162,6731,1570512717164523000,/map,-17920.9726562,-93708.40625,44.5669746399,-0.0210578492637,-0.0210441061728,-0.324737624259,0.945335489639
1570512717327076251,6732,1570512717264685000,/map,-17920.4570312,-93708.78125,44.6246147156,-0.0189019583361,-0.0204759972104,-0.324710811038,0.945402738892
1570512717448130839,6733,1570512717369368000,/map,-17919.9433594,-93709.1953125,44.6391181946,-0.0161204846619,-0.0192508231889,-0.325039640074,0.945367001836
1570512717546976660,6734,1570512717465134000,/map,-17919.3769531,-93709.609375,44.6825256348,-0.0148862862308,-0.0176676359954,-0.325208916949,0.945359938572
1570512717629976308,6735,1570512717565386000,/map,-17918.8164062,-93710.0390625,44.7232513428,-0.0151356100411,-0.0157330057052,-0.325388063145,0.945328511261
1570512717743469736,6736,1570512717665628000,/map,-17918.3476562,-93710.4296875,44.7284126282,-0.0143854519708,-0.015059863233,-0.325386982537,0.945351559414
1570512717828743957,6737,1570512717765777000,/map,-17917.8671875,-93710.7890625,44.740070343,-0.0150622247053,-0.015620623128,-0.325110372963,0.945427083868
1570512717946961904,6738,1570512717866129000,/map,-17917.3164062,-93711.1796875,44.7781829834,-0.0156243191915,-0.0163575706488,-0.325124744478,0.945400555881
1570512718048963366,6739,1570512717966299000,/map,-17916.8125,-93711.6015625,44.8346214294,-0.0163967316112,-0.016434322027,-0.325020704347,0.945421917451
1570512718133751424,6740,1570512718066443000,/map,-17916.296875,-93711.9921875,44.8662796021,-0.0165055733266,-0.0153364433006,-0.32497498247,0.945454187322
1570512718239885763,6741,1570512718166770000,/map,-17915.8515625,-93712.34375,44.928768158,-0.0184793840491,-0.0123370537633,-0.325029773136,0.945442730177
1570512718323922906,6742,1570512718266912000,/map,-17915.3984375,-93712.71875,44.9412231445,-0.0203492697102,-0.00986085134359,-0.324825689668,0.945503538949
1570512718432630932,6743,1570512718367166000,/map,-17914.890625,-93713.09375,44.9255142212,-0.0212310943693,-0.0093300298068,-0.324551603312,0.945583654662
1570512718538886914,6744,1570512718467411000,/map,-17914.4023438,-93713.453125,44.9490013123,-0.0210982524501,-0.010774864663,-0.324053246462,0.9457421739
1570512718618639686,6745,1570512718567554000,/map,-17913.9335938,-93713.8046875,44.9600639343,-0.020733290587,-0.0115409431803,-0.323395603061,0.945966289681
1570512718743494919,6746,1570512718667906000,/map,-17913.5019531,-93714.1484375,44.9925193787,-0.0193555075555,-0.0134825202504,-0.323053836779,0.946086573479
1570512718842629765,6747,1570512718768051000,/map,-17913.0371094,-93714.4921875,45.0255775452,-0.0203701646919,-0.0146368838242,-0.322436465543,0.946258708658
1570512718964089321,6748,1570512718868862000,/map,-17912.6875,-93714.7421875,45.0675735474,-0.0198537538407,-0.0141505329854,-0.322224723557,0.946349205316
1570512719057067332,6749,1570512718968547000,/map,-17912.2871094,-93715.0546875,45.0811576843,-0.0166909097264,-0.0131994219424,-0.322416936824,0.946358551312
1570512719129362579,6750,1570512719068694000,/map,-17911.8671875,-93715.3671875,45.0851669312,-0.0163168899025,-0.0132462785158,-0.322407497008,0.946367635268
1570512719225496627,6751,1570512719169040000,/map,-17911.4589844,-93715.6953125,45.1213722229,-0.0145128477511,-0.0132598424955,-0.321941513915,0.946555447634
1570512719349098005,6752,1570512719269186000,/map,-17911.1015625,-93715.9453125,45.1601104736,-0.0107439334606,-0.0134089979908,-0.321450111697,0.946770612322
1570512719433494716,6753,1570512719369337000,/map,-17910.7519531,-93716.2109375,45.1580848694,-0.0111354389821,-0.0129087527337,-0.321671030808,0.946698005723
1570512719522548236,6754,1570512719469681000,/map,-17910.421875,-93716.46875,45.1783714294,-0.0135531828859,-0.0125222835781,-0.321623259131,0.946687901493
1570512719631756694,6755,1570512719569827000,/map,-17910.0625,-93716.703125,45.2014808655,-0.013044700699,-0.0140978466713,-0.321116429451,0.946844931992
1570512719753388859,6756,1570512719670076000,/map,-17909.7441406,-93716.9609375,45.2492599487,-0.0110084023062,-0.014339324785,-0.320840506481,0.946960700475
1570512719847329745,6757,1570512719770325000,/map,-17909.4648438,-93717.1796875,45.2468299866,-0.00618548733074,-0.0146919543907,-0.32101299136,0.946940624116
1570512719932815640,6758,1570512719870471000,/map,-17909.1933594,-93717.390625,45.2456893921,-0.00595018921457,-0.0143008837068,-0.320862350076,0.946999172269
1570512720027266381,6759,1570512719970818000,/map,-17908.90625,-93717.6015625,45.2528152466,-0.00622633068223,-0.0147506729351,-0.321070271694,0.946920023597
1570512720126508342,6760,1570512720070962000,/map,-17908.6269531,-93717.796875,45.2917022705,-0.00943876809885,-0.0133593142376,-0.321612340554,0.946730130916
1570512720237864923,6761,1570512720171110000,/map,-17908.359375,-93717.9921875,45.2957954407,-0.0107278500345,-0.0118288828029,-0.321888561807,0.946642881209
1570512720338632070,6762,1570512720271460000,/map,-17908.1367188,-93718.1875,45.2882461548,-0.0090488700532,-0.0125289991198,-0.321723053945,0.946707673304
1570512720441807067,6763,1570512720371608000,/map,-17907.9472656,-93718.3203125,45.300819397,-0.00615332188372,-0.0139088620384,-0.321756797855,0.946700186554
1570512720534919372,6764,1570512720471881000,/map,-17907.734375,-93718.5,45.2993888855,-0.00284703166557,-0.015607481734,-0.322446522084,0.946454722277
1570512720639123677,6765,1570512720572993000,/map,-17907.53125,-93718.65625,45.2985420227,-0.00223282683652,-0.0172506741589,-0.322503395302,0.946408468234
1570512720747393891,6766,1570512720672250000,/map,-17907.328125,-93718.765625,45.295135498,-0.00326655352128,-0.0190616522056,-0.322600492079,0.946337627675
1570512720838283095,6767,1570512720772595000,/map,-17907.1328125,-93718.9140625,45.308429718,-0.00624464113782,-0.0198963215572,-0.32341012284,0.946029086915
1570512720942676328,6768,1570512720872764000,/map,-17906.9453125,-93719.0703125,45.3352088928,-0.00859025848907,-0.0197017384515,-0.323702873414,0.945914636056
1570512721032977933,6769,1570512720972912000,/map,-17906.7539062,-93719.2109375,45.3378639221,-0.00824575248931,-0.0199680050159,-0.323840582231,0.945864981719
1570512721159010044,6770,1570512721078173000,/map,-17906.5585938,-93719.3359375,45.3248672485,-0.00724905891347,-0.0214237014163,-0.32445977021,0.945629067699
1570512721238793581,6771,1570512721173412000,/map,-17906.4042969,-93719.46875,45.310585022,-0.00745670131131,-0.0234306713369,-0.324785445796,0.945468040415
1570512721343054115,6772,1570512721276483000,/map,-17906.2226562,-93719.609375,45.3357200623,-0.00696165420811,-0.0250545715827,-0.324634535937,0.945482005059
1570512721444323715,6773,1570512721373878000,/map,-17906.0078125,-93719.7734375,45.34948349,-0.00599041376786,-0.0261417739969,-0.324712928339,0.945432301524
1570512721544692227,6774,1570512721474027000,/map,-17905.8007812,-93719.953125,45.3668708801,-0.00580258523951,-0.0265624553961,-0.325109309514,0.945285513924
1570512721633733955,6775,1570512721574376000,/map,-17905.5917969,-93720.1171875,45.3780555725,-0.00604648081357,-0.0262827143309,-0.325511250605,0.94515347152
1570512721733128629,6776,1570512721674520000,/map,-17905.3574219,-93720.28125,45.3959503174,-0.00689672697201,-0.0253794370024,-0.32587093517,0.945048386563
1570512721840937270,6777,1570512721774768000,/map,-17905.1132812,-93720.4765625,45.4135818481,-0.00934156516288,-0.0233686918503,-0.326189258575,0.944969421194
1570512721934256235,6778,1570512721875061000,/map,-17904.8730469,-93720.65625,45.4145812988,-0.010420638429,-0.0229292580673,-0.326204774915,0.944963546515
1570512722048851607,6779,1570512721975160000,/map,-17904.6289062,-93720.84375,45.4200744629,-0.0101191594435,-0.0232926044773,-0.3262352264,0.944947424064
1570512722142789904,6780,1570512722075510000,/map,-17904.3574219,-93721.0546875,45.4472503662,-0.00998453399299,-0.0236139419087,-0.326913722555,0.944706361169
1570512722244000252,6781,1570512722175659000,/map,-17904.0527344,-93721.296875,45.464805603,-0.0107442688978,-0.0238451735234,-0.327327445092,0.944548946363
1570512722352533764,6782,1570512722275804000,/map,-17903.765625,-93721.5078125,45.4829788208,-0.0125326368542,-0.0237190540854,-0.32785132481,0.944348372322
1570512722447883616,6783,1570512722376152000,/map,-17903.4804688,-93721.7265625,45.5078353882,-0.0150377072091,-0.0232631092795,-0.328732898703,0.94401661872
1570512722543069708,6784,1570512722476300000,/map,-17903.1875,-93721.9375,45.5203132629,-0.014501175514,-0.0233540935816,-0.329377718099,0.943797976816
1570512722652231572,6785,1570512722576547000,/map,-17902.90625,-93722.1953125,45.5359382629,-0.0133718492488,-0.0232500399612,-0.330190701826,0.943533110027
1570512722766925006,6786,1570512722676790000,/map,-17902.5839844,-93722.4453125,45.5629806519,-0.011088398025,-0.0227795178406,-0.331115962646,0.943249892805
1570512722838700614,6787,1570512722776939000,/map,-17902.2734375,-93722.6796875,45.5706443787,-0.00877035090692,-0.0221015329475,-0.332068346099,0.94295557515
1570512722948760971,6788,1570512722877209000,/map,-17901.9765625,-93722.8828125,45.6083869934,-0.00648145948355,-0.0211946768708,-0.333681465895,0.94242530509
1570512723040742014,6789,1570512722977433000,/map,-17901.6875,-93723.109375,45.632522583,-0.00570130667831,-0.0201071543627,-0.335603011427,0.941771636952
1570512723162086626,6790,1570512723077684000,/map,-17901.3515625,-93723.375,45.6606330872,-0.005498874713,-0.0183792168882,-0.337958156357,0.940965595182
1570512723246804770,6791,1570512723177948000,/map,-17901.015625,-93723.6328125,45.657623291,-0.00395447734273,-0.0191239928718,-0.340421065141,0.940070281103
1570512723353649844,6792,1570512723278109000,/map,-17900.71875,-93723.8828125,45.6532020569,-0.000460799575071,-0.0222861907174,-0.342931602946,0.939095857231
